{"type": "FeatureCollection", "features": [{"type":"Feature","geometry":null,"properties":{"cartodb_id":50,"type":"GP","name":"RICHMOND DENTAL","address":"1412 RICHARDMOND RD","city":"STATEN ISLAND","state":"NY ","zipcode":10304,"phone":"718-667-3900","cartodb_georef_status":false,"typefull":"General Practitioner"}},{"type":"Feature","geometry":{"type":"Point","coordinates":[-74.00648,40.71547]},"properties":{"cartodb_id":408,"type":"MS","name":"BW DENTAL","address":"108 DUANE STREET","city":"NEW YORK","state":"NY ","zipcode":10007,"phone":"212-966-5551","cartodb_georef_status":true,"typefull":"Multiple Specialist"}},{"type":"Feature","geometry":{"type":"Point","coordinates":[-73.84143,40.71984]},"properties":{"cartodb_id":495,"type":"OR","name":"S.J. RINTEL","address":"109-20 QUEENS BLVD.","city":"FOREST HILLS","state":"NY ","zipcode":11375,"phone":"718-275-6767","cartodb_georef_status":true,"typefull":"Orthodontist"}},{"type":"Feature","geometry":{"type":"Point","coordinates":[-73.975149,40.672221]},"properties":{"cartodb_id":113,"type":"GP","name":"W ROSENZWEIG","address":"10 FISKE PL SUITE 325  ","city":"MOUNT VERNON","state":"NY ","zipcode":10550,"phone":"914-668-1813","cartodb_georef_status":true,"typefull":"General Practitioner"}},{"type":"Feature","geometry":{"type":"Point","coordinates":[-73.85789,40.85675]},"properties":{"cartodb_id":470,"type":"OR","name":"AHMED ORTHODONT","address":"1100 PELHAM PARKWAY SO ","city":"BRONX","state":"NY ","zipcode":10461,"phone":"718-684-3131","cartodb_georef_status":true,"typefull":"Orthodontist"}},{"type":"Feature","geometry":null,"properties":{"cartodb_id":346,"type":"GP","name":"R BORGELLA","address":"120 WOODFIELD RD","city":"WEST HEMPSTEAD  ","state":"NY ","zipcode":11552,"phone":"516-489-3679","cartodb_georef_status":false,"typefull":"General Practitioner"}},{"type":"Feature","geometry":null,"properties":{"cartodb_id":260,"type":"GP","name":"W COHEN","address":"58-47 FRAN LEW BL 102A ","city":"BAYSIDE","state":"NY ","zipcode":11364,"phone":"718-224-3001","cartodb_georef_status":false,"typefull":"General Practitioner"}},{"type":"Feature","geometry":{"type":"Point","coordinates":[-73.9396,40.7612]},"properties":{"cartodb_id":145,"type":"GP","name":"RAVENSWOOD DENT","address":"11-03 36TH AVENUE","city":"L. I. CITY","state":"NY ","zipcode":11106,"phone":"718-777-8144","cartodb_georef_status":true,"typefull":"General Practitioner"}},{"type":"Feature","geometry":null,"properties":{"cartodb_id":342,"type":"GP","name":"ROOSEVELT FIELD","address":"630 OLD COUNTRY RD 01D ","city":"GARDEN CITY","state":"NY ","zipcode":11530,"phone":"516-294-1919","cartodb_georef_status":false,"typefull":"General Practitioner"}},{"type":"Feature","geometry":{"type":"Point","coordinates":[-73.97809,40.75047]},"properties":{"cartodb_id":13,"type":"GP","name":"EXPERT DENTAL","address":"110 E 40TH ST SUT 104  ","city":"NEW YORK","state":"NY ","zipcode":10016,"phone":"212-682-2965","cartodb_georef_status":true,"typefull":"General Practitioner"}},{"type":"Feature","geometry":{"type":"Point","coordinates":[-73.96444,40.71055]},"properties":{"cartodb_id":512,"type":"OS","name":"WALL ST DENTAL","address":"111 BROADWAY STE 1706  ","city":"NEW YORK","state":"NY ","zipcode":10006,"phone":"212-227-9555","cartodb_georef_status":true,"typefull":"Oral Surgeon"}},{"type":"Feature","geometry":{"type":"Point","coordinates":[-80.24917,26.26218]},"properties":{"cartodb_id":393,"type":"GP","name":"AMERICAN SETHI","address":"1127 S UNIVERSITY DR.  ","city":"PLANTATION","state":"FL ","zipcode":33324,"phone":"954-731-0586","cartodb_georef_status":true,"typefull":"General Practitioner"}},{"type":"Feature","geometry":null,"properties":{"cartodb_id":594,"type":"PE","name":"J GREENBERG","address":"158 EAST MAIN STREET","city":"HUNTINGTON","state":"NY ","zipcode":11743,"phone":"631-423-4550","cartodb_georef_status":false,"typefull":"Periodontist"}},{"type":"Feature","geometry":null,"properties":{"cartodb_id":595,"type":"PE","name":"A GORMAN","address":"100 MANETTO HILL RD","city":"#311 PLAINVIEW  ","state":"NY ","zipcode":11803,"phone":"516-931-6663","cartodb_georef_status":false,"typefull":"Periodontist"}},{"type":"Feature","geometry":null,"properties":{"cartodb_id":597,"type":"PR","name":"DENTISTART GRP","address":"9955 NW 31 ST STE#201  ","city":"CORAL SPRINGS","state":"FL ","zipcode":33065,"phone":"954-906-8177","cartodb_georef_status":false,"typefull":"Prosthodontist"}},{"type":"Feature","geometry":{"type":"Point","coordinates":[-74.035258,40.612697]},"properties":{"cartodb_id":307,"type":"GP","name":"JOLLY MONICA","address":"114-07 101ST STREET","city":"RICHMOND HILL","state":"NY ","zipcode":11419,"phone":"718-441-7547","cartodb_georef_status":true,"typefull":"General Practitioner"}},{"type":"Feature","geometry":{"type":"Point","coordinates":[-73.93057,40.66838]},"properties":{"cartodb_id":178,"type":"GP","name":"EASTERN FAMILY","address":"1140 EASTERN PKWY","city":"BROOKLYN","state":"NY ","zipcode":11213,"phone":"718-221-2039","cartodb_georef_status":true,"typefull":"General Practitioner"}},{"type":"Feature","geometry":{"type":"Point","coordinates":[-74.08092,40.59836]},"properties":{"cartodb_id":52,"type":"GP","name":"S GLASSMAN","address":"1146 HYLAN BOULEVARD","city":"STATEN ISLAND","state":"NY ","zipcode":10305,"phone":"718-273-5558","cartodb_georef_status":true,"typefull":"General Practitioner"}},{"type":"Feature","geometry":{"type":"Point","coordinates":[-73.73569,40.94889]},"properties":{"cartodb_id":117,"type":"GP","name":"WHITEPLAINS DEN","address":"114 MAMARONECK AVE","city":"WHITE PLAINS","state":"NY ","zipcode":10601,"phone":"914-615-9888","cartodb_georef_status":true,"typefull":"General Practitioner"}},{"type":"Feature","geometry":{"type":"Point","coordinates":[-73.58707,40.65486]},"properties":{"cartodb_id":504,"type":"OR","name":"HORIZON ORTHO","address":"1150 PORTION RD-STE#13 ","city":"HOLTSVILLE","state":"NY ","zipcode":11742,"phone":"631-698-2424","cartodb_georef_status":true,"typefull":"Orthodontist"}},{"type":"Feature","geometry":{"type":"Point","coordinates":[-73.834014,40.716025]},"properties":{"cartodb_id":296,"type":"GP","name":"KOOL SMILES DEN","address":"115-10 QUEENS BLVD#UL6 ","city":"FOREST HILLS","state":"NY ","zipcode":11375,"phone":"718-874-6969","cartodb_georef_status":true,"typefull":"General Practitioner"}},{"type":"Feature","geometry":{"type":"Point","coordinates":[-73.56857,40.7171]},"properties":{"cartodb_id":348,"type":"GP","name":"TRACEY AMBRISTE","address":"1154 FRONT STREET","city":"UNIONDALE","state":"NY ","zipcode":11553,"phone":"516-307-9909","cartodb_georef_status":true,"typefull":"General Practitioner"}},{"type":"Feature","geometry":{"type":"Point","coordinates":[-73.82412,40.68652]},"properties":{"cartodb_id":434,"type":"MS","name":"CONCERNED DENT","address":"119-01 LIBERTY AVE","city":"RICHMOND HILL","state":"NY ","zipcode":11419,"phone":"718-843-1616","cartodb_georef_status":true,"typefull":"Multiple Specialist"}},{"type":"Feature","geometry":{"type":"Point","coordinates":[-74.01385,40.70537]},"properties":{"cartodb_id":7,"type":"GP","name":"CITY DENTAL P.C","address":"11 BROADWAY","city":"NEW YORK","state":"NY ","zipcode":10004,"phone":"212-425-0505","cartodb_georef_status":true,"typefull":"General Practitioner"}},{"type":"Feature","geometry":{"type":"Point","coordinates":[-73.9974,40.7132]},"properties":{"cartodb_id":566,"type":"PE","name":"V S LIN","address":"11 EAST BROADWAY 15FL  ","city":"NEW YORK","state":"NY ","zipcode":10038,"phone":"212-732-5896","cartodb_georef_status":true,"typefull":"Periodontist"}},{"type":"Feature","geometry":{"type":"Point","coordinates":[-73.95616,40.64081]},"properties":{"cartodb_id":216,"type":"GP","name":"BUDIYANSKAYA","address":"1208 FLATBUSH AVE","city":"BROOKLYN","state":"NY ","zipcode":11226,"phone":"718-282-8066","cartodb_georef_status":true,"typefull":"General Practitioner"}},{"type":"Feature","geometry":{"type":"Point","coordinates":[-74.223382,40.664645]},"properties":{"cartodb_id":109,"type":"GP","name":"ELGAR FAM. DENT","address":"120 ELGAR PL. UNITB","city":"BRONX","state":"NY ","zipcode":10475,"phone":"718-708-7171","cartodb_georef_status":true,"typefull":"General Practitioner"}},{"type":"Feature","geometry":{"type":"Point","coordinates":[-73.96834,40.76323]},"properties":{"cartodb_id":399,"type":"EN","name":"M J COLLURA DMD P ","address":"121 EAST 60TH ST #4A","city":"NEW YORK","state":"NY ","zipcode":10022,"phone":"212-980-7857","cartodb_georef_status":true,"typefull":"Endodontist"}},{"type":"Feature","geometry":{"type":"Point","coordinates":[-73.92202,40.66728]},"properties":{"cartodb_id":177,"type":"GP","name":"BROOKLYN QUALIT","address":"1220 E NEW YORK AVENUE ","city":"BROOKLYN","state":"NY ","zipcode":11212,"phone":"718-604-2377","cartodb_georef_status":true,"typefull":"General Practitioner"}},{"type":"Feature","geometry":{"type":"Point","coordinates":[-73.50985,40.67578]},"properties":{"cartodb_id":370,"type":"GP","name":"F A COSTA","address":"1228 WANTAGH AVE #112  ","city":"WANTAGH","state":"NY ","zipcode":11793,"phone":"516-679-7772","cartodb_georef_status":true,"typefull":"General Practitioner"}},{"type":"Feature","geometry":{"type":"Point","coordinates":[-73.988649,40.74664]},"properties":{"cartodb_id":405,"type":"EN","name":"LIAO KENNETH","address":"1229 BROADWAY-STE #202 ","city":"HEWLETT","state":"NY ","zipcode":11557,"phone":"516-374-0685","cartodb_georef_status":true,"typefull":"Endodontist"}},{"type":"Feature","geometry":{"type":"Point","coordinates":[-73.86232,40.83159]},"properties":{"cartodb_id":422,"type":"MS","name":"EMPIRE DENTAL","address":"1231 WHITEPLAINS RD.","city":"BRONX","state":"NY ","zipcode":10472,"phone":"718-822-7645","cartodb_georef_status":true,"typefull":"Multiple Specialist"}},{"type":"Feature","geometry":{"type":"Point","coordinates":[-73.81986,40.68814]},"properties":{"cartodb_id":590,"type":"PE","name":"DR.VENKATESH-PC","address":"124-09 LIBERTY AVE","city":"S RICHMOND HILL ","state":"NY ","zipcode":11419,"phone":"718-323-0633","cartodb_georef_status":true,"typefull":"Periodontist"}},{"type":"Feature","geometry":{"type":"Point","coordinates":[-73.85152,40.83312]},"properties":{"cartodb_id":527,"type":"OS","name":"MANHATTAN ORAL","address":"1241 CASTLE HILL AVE","city":"BRONX","state":"NY ","zipcode":10462,"phone":"347-590-9917","cartodb_georef_status":true,"typefull":"Oral Surgeon"}},{"type":"Feature","geometry":{"type":"Point","coordinates":[-73.95006,40.65682]},"properties":{"cartodb_id":213,"type":"GP","name":"CONFIDENT DENT.","address":"1241 NOSTRAND AVE","city":"BROOKLYN","state":"NY ","zipcode":11225,"phone":"718-484-7505","cartodb_georef_status":true,"typefull":"General Practitioner"}},{"type":"Feature","geometry":null,"properties":{"cartodb_id":502,"type":"OR","name":"R L WEINBERG","address":"22 CARDINAL DRIVE","city":"ROSLYN","state":"NY ","zipcode":11576,"phone":"516-626-0352","cartodb_georef_status":false,"typefull":"Orthodontist"}},{"type":"Feature","geometry":{"type":"Point","coordinates":[-73.915294,40.839159]},"properties":{"cartodb_id":66,"type":"GP","name":"PRIYA PARASHER","address":"124 E 170TH ST","city":"BRONX","state":"NY ","zipcode":10452,"phone":"718-293-7670","cartodb_georef_status":true,"typefull":"General Practitioner"}},{"type":"Feature","geometry":{"type":"Point","coordinates":[-73.964579,40.633184]},"properties":{"cartodb_id":376,"type":"GP","name":"HUDSON VLY.DENT","address":"1300 ULSTER AVE.STE160 ","city":"KINGSTON","state":"NY ","zipcode":12401,"phone":"845-336-0400","cartodb_georef_status":true,"typefull":"General Practitioner"}},{"type":"Feature","geometry":{"type":"Point","coordinates":[-73.988108,40.74981]},"properties":{"cartodb_id":353,"type":"GP","name":"PHEDRYNE ROBERT","address":"1309 DUTCH BROADWAY","city":"VALLEY STREAM","state":"NY ","zipcode":11580,"phone":"516-307-1678","cartodb_georef_status":true,"typefull":"General Practitioner"}},{"type":"Feature","geometry":{"type":"Point","coordinates":[-73.80695,40.67511]},"properties":{"cartodb_id":310,"type":"GP","name":"ROCKAWAY DENTAL","address":"131-09 ROCKAWAY BLV","city":"S.OZONE PARK","state":"NY ","zipcode":11420,"phone":"718-322-9607","cartodb_georef_status":true,"typefull":"General Practitioner"}},{"type":"Feature","geometry":{"type":"Point","coordinates":[-73.80688,40.6751]},"properties":{"cartodb_id":308,"type":"GP","name":"GOLDSTEIN/GOLDS","address":"131-11 ROCKAWAY BLVD","city":"SO OZONE PK","state":"NY ","zipcode":11420,"phone":"718-322-9607","cartodb_georef_status":true,"typefull":"General Practitioner"}},{"type":"Feature","geometry":{"type":"Point","coordinates":[-73.80686,40.67456]},"properties":{"cartodb_id":309,"type":"GP","name":"LINCOLN DENTAL","address":"131-14 ROCKAWAY BLVD","city":"S.OZONE PARK","state":"NY ","zipcode":11420,"phone":"718-322-9022","cartodb_georef_status":true,"typefull":"General Practitioner"}},{"type":"Feature","geometry":{"type":"Point","coordinates":[-73.80686,40.67456]},"properties":{"cartodb_id":311,"type":"GP","name":"L WEISS","address":"131-14 ROCKAWAY BLVD","city":"SOUTH OZONE PRK ","state":"NY ","zipcode":11420,"phone":"718-322-9022","cartodb_georef_status":true,"typefull":"General Practitioner"}},{"type":"Feature","geometry":{"type":"Point","coordinates":[-73.99001,40.63637]},"properties":{"cartodb_id":193,"type":"GP","name":"COHEN DENTAL PC","address":"1314 46TH ST. STE# A-4 ","city":"BROOKLYN","state":"NY ","zipcode":11219,"phone":"718-437-6453","cartodb_georef_status":true,"typefull":"General Practitioner"}},{"type":"Feature","geometry":{"type":"Point","coordinates":[-73.977752,40.7515]},"properties":{"cartodb_id":119,"type":"GP","name":"YONKERS DENTAL","address":"131 PARK AVENUE","city":"YONKERS","state":"NY ","zipcode":10703,"phone":"914-964-1000","cartodb_georef_status":true,"typefull":"General Practitioner"}},{"type":"Feature","geometry":{"type":"Point","coordinates":[-73.83287,40.75505]},"properties":{"cartodb_id":253,"type":"GP","name":"ADORA DENTAL","address":"132-03 SANFORD AVE-1E  ","city":"FLUSHING","state":"NY ","zipcode":11355,"phone":"718-321-1166","cartodb_georef_status":true,"typefull":"General Practitioner"}},{"type":"Feature","geometry":{"type":"Point","coordinates":[-73.83164,40.75665]},"properties":{"cartodb_id":429,"type":"MS","name":"EZ DENTAL SERV","address":"132-61 41ST. RD. STE1A ","city":"FLUSHING","state":"NY ","zipcode":11355,"phone":"718-886-0860","cartodb_georef_status":true,"typefull":"Multiple Specialist"}},{"type":"Feature","geometry":{"type":"Point","coordinates":[-73.8314,40.75709]},"properties":{"cartodb_id":402,"type":"EN","name":"J Y CHUNG","address":"133-08 41ST AVE 1ST FL ","city":"FLUSHING","state":"NY ","zipcode":11355,"phone":"718-762-7888","cartodb_georef_status":true,"typefull":"Endodontist"}},{"type":"Feature","geometry":{"type":"Point","coordinates":[-73.80813,40.66832]},"properties":{"cartodb_id":435,"type":"MS","name":"P C CONCERNED DEN ","address":"133-40 131ST STREET","city":"S OZONE PARK","state":"NY ","zipcode":11420,"phone":"718-529-3800","cartodb_georef_status":true,"typefull":"Multiple Specialist"}},{"type":"Feature","geometry":{"type":"Point","coordinates":[-73.92252,40.65191]},"properties":{"cartodb_id":22,"type":"GP","name":"R E MIKAELIAN","address":"133 E.58TH STREET #403 ","city":"NEW YORK","state":"NY ","zipcode":10022,"phone":"212-752-1898","cartodb_georef_status":true,"typefull":"General Practitioner"}},{"type":"Feature","geometry":null,"properties":{"cartodb_id":114,"type":"GP","name":"S SHAEV","address":"105 STEVENS AVE #606","city":"MT VERNON","state":"NY ","zipcode":10550,"phone":"914-699-6191","cartodb_georef_status":false,"typefull":"General Practitioner"}},{"type":"Feature","geometry":null,"properties":{"cartodb_id":115,"type":"GP","name":"PEEKSKILL DENT","address":"901 MAIN STREET-S#200  ","city":"PEEKSKILL","state":"NY ","zipcode":10566,"phone":"914-739-9400","cartodb_georef_status":false,"typefull":"General Practitioner"}},{"type":"Feature","geometry":null,"properties":{"cartodb_id":125,"type":"GP","name":"NANUET MALL DEN","address":"75 WEST RT 59 #1009A","city":"NANUET","state":"NY ","zipcode":10954,"phone":"845-624-7500","cartodb_georef_status":false,"typefull":"General Practitioner"}},{"type":"Feature","geometry":null,"properties":{"cartodb_id":130,"type":"GP","name":"FLORAL PARK DEN","address":"25 SOUTH TYSON AVE","city":"FLORAL PARK","state":"NY ","zipcode":11001,"phone":"516-437-5566","cartodb_georef_status":false,"typefull":"General Practitioner"}},{"type":"Feature","geometry":null,"properties":{"cartodb_id":131,"type":"GP","name":"FLORAL PRK DENT","address":"25 SOUTH TYSON AVE","city":"FLORAL PARK","state":"NY ","zipcode":11001,"phone":"516-437-5566","cartodb_georef_status":false,"typefull":"General Practitioner"}},{"type":"Feature","geometry":{"type":"Point","coordinates":[-73.90521,40.85342]},"properties":{"cartodb_id":70,"type":"GP","name":"R C RASTOGI","address":"2062 MORRIS AVE","city":"BRONX","state":"NY ","zipcode":10453,"phone":"718-367-1113","cartodb_georef_status":true,"typefull":"General Practitioner"}},{"type":"Feature","geometry":{"type":"Point","coordinates":[-73.85881,40.72837]},"properties":{"cartodb_id":284,"type":"GP","name":"HOLLYWOOD SMILE","address":"97-50 QUEENS BLVD S#G2 ","city":"REGO PARK","state":"NY ","zipcode":11374,"phone":"718-830-0110","cartodb_georef_status":true,"typefull":"General Practitioner"}},{"type":"Feature","geometry":{"type":"Point","coordinates":[-73.97748,40.68448]},"properties":{"cartodb_id":189,"type":"GP","name":"ATLANTIC TER DE","address":"139 FLATBUSH AVEUE","city":"BROOKLYN","state":"NY ","zipcode":11217,"phone":"718-622-6100","cartodb_georef_status":true,"typefull":"General Practitioner"}},{"type":"Feature","geometry":{"type":"Point","coordinates":[-73.828882,40.875501]},"properties":{"cartodb_id":532,"type":"OS","name":"BENJ KATAYEV PC","address":"140-1 DEKRUIF PLACE","city":"BRONX","state":"NY ","zipcode":10475,"phone":"718-379-1700","cartodb_georef_status":true,"typefull":"Oral Surgeon"}},{"type":"Feature","geometry":{"type":"Point","coordinates":[-79.08806,42.5892]},"properties":{"cartodb_id":377,"type":"GP","name":"GOLDSTEIN&FREUD","address":"1401 RT. 300--STE 1081 ","city":"NEWBURGH","state":"NY ","zipcode":12550,"phone":"845-564-9300","cartodb_georef_status":true,"typefull":"General Practitioner"}},{"type":"Feature","geometry":{"type":"Point","coordinates":[-73.73016,40.65975]},"properties":{"cartodb_id":315,"type":"GP","name":"PIERRE MARGARET","address":"140-59 255TH STREET","city":"ROSEDALE","state":"NY ","zipcode":11422,"phone":"718-949-4400","cartodb_georef_status":true,"typefull":"General Practitioner"}},{"type":"Feature","geometry":{"type":"Point","coordinates":[-73.83187,40.87719]},"properties":{"cartodb_id":110,"type":"GP","name":"NEW YORK FAMILY","address":"140 DARROW PLACE #1","city":"BRONX","state":"NY ","zipcode":10475,"phone":"718-379-0077","cartodb_georef_status":true,"typefull":"General Practitioner"}},{"type":"Feature","geometry":{"type":"Point","coordinates":[-73.828882,40.875501]},"properties":{"cartodb_id":571,"type":"PE","name":"ADVAN.PERIO.CAR","address":"140 DEKRUIF PLACE","city":"BRONX","state":"NY ","zipcode":10475,"phone":"718-379-1700","cartodb_georef_status":true,"typefull":"Periodontist"}},{"type":"Feature","geometry":{"type":"Point","coordinates":[-73.96338,40.63408]},"properties":{"cartodb_id":228,"type":"GP","name":"GY DENTAL PC","address":"1419 FOSTER AVENUE","city":"BROOKLYN","state":"NY ","zipcode":11230,"phone":"718-421-6300","cartodb_georef_status":true,"typefull":"General Practitioner"}},{"type":"Feature","geometry":{"type":"Point","coordinates":[-75.0733,42.49884]},"properties":{"cartodb_id":343,"type":"GP","name":"DELLA PIETRA","address":"141 N.FRANKLI STREET","city":"HEMPSTEAD","state":"NY ","zipcode":11550,"phone":"516-538-0100","cartodb_georef_status":true,"typefull":"General Practitioner"}},{"type":"Feature","geometry":{"type":"Point","coordinates":[-73.84413,40.86971]},"properties":{"cartodb_id":104,"type":"GP","name":"GUN HILLDENASSO","address":"1425 EAST GUN HILL RD  ","city":"BRONX","state":"NY ","zipcode":10469,"phone":"718-671-0480","cartodb_georef_status":true,"typefull":"General Practitioner"}},{"type":"Feature","geometry":{"type":"Point","coordinates":[-73.99355,40.69281]},"properties":{"cartodb_id":572,"type":"PE","name":"A ASKARI DDS PC","address":"142 JORALEMON ST STE9E ","city":"BROOKLYN","state":"NY ","zipcode":11201,"phone":"718-625-4085","cartodb_georef_status":true,"typefull":"Periodontist"}},{"type":"Feature","geometry":{"type":"Point","coordinates":[-73.98737,40.72049]},"properties":{"cartodb_id":2,"type":"GP","name":"ESSEX DENTAL","address":"143 ESSEX STREET","city":"NEW YORK","state":"NY ","zipcode":10002,"phone":"212-228-2999","cartodb_georef_status":true,"typefull":"General Practitioner"}},{"type":"Feature","geometry":{"type":"Point","coordinates":[-80.25846,25.76783]},"properties":{"cartodb_id":386,"type":"GP","name":"LOOR KLEBER PA","address":"1450 W.FLAGLER ST","city":"MIAMI","state":"FL ","zipcode":33135,"phone":"305-649-7800","cartodb_georef_status":true,"typefull":"General Practitioner"}},{"type":"Feature","geometry":{"type":"Point","coordinates":[-73.942463,40.679857]},"properties":{"cartodb_id":186,"type":"GP","name":"BEDFORD STY DEN","address":"1456 FULTON STREET","city":"BROOKLYN","state":"NY ","zipcode":11216,"phone":"718-696-4500","cartodb_georef_status":true,"typefull":"General Practitioner"}},{"type":"Feature","geometry":{"type":"Point","coordinates":[-73.90981,40.84476]},"properties":{"cartodb_id":85,"type":"GP","name":"J SYCAMORE","address":"146 EAST 174TH STREET  ","city":"BRONX","state":"NY ","zipcode":10457,"phone":"718-450-3403","cartodb_georef_status":true,"typefull":"General Practitioner"}},{"type":"Feature","geometry":{"type":"Point","coordinates":[-73.92223,40.70141]},"properties":{"cartodb_id":489,"type":"OR","name":"ORTHO CLUB PC","address":"1471 DEKALB AVE","city":"BROOKLYN","state":"NY ","zipcode":11237,"phone":"718-443-4444","cartodb_georef_status":true,"typefull":"Orthodontist"}},{"type":"Feature","geometry":{"type":"Point","coordinates":[-73.86186,40.83614]},"properties":{"cartodb_id":89,"type":"GP","name":"S AKNOUK","address":"1473 WEST AVENUE","city":"BRONX","state":"NY ","zipcode":10462,"phone":"718-824-5444","cartodb_georef_status":true,"typefull":"General Practitioner"}},{"type":"Feature","geometry":{"type":"Point","coordinates":[-80.292065,40.627532]},"properties":{"cartodb_id":596,"type":"PE","name":"L L SHAPIRO","address":"1500 UNIVERSITY DR 111 ","city":"CORAL SPRINGS","state":"FL ","zipcode":33071,"phone":"954-753-0520","cartodb_georef_status":true,"typefull":"Periodontist"}},{"type":"Feature","geometry":{"type":"Point","coordinates":[-73.9864,40.7571]},"properties":{"cartodb_id":41,"type":"GP","name":"NATALYA MADLIN","address":"1501 BROADWAY SUT #520 ","city":"NEW YORK","state":"NY ","zipcode":10036,"phone":"212-398-1969","cartodb_georef_status":true,"typefull":"General Practitioner"}},{"type":"Feature","geometry":{"type":"Point","coordinates":[-73.71748,40.72627]},"properties":{"cartodb_id":134,"type":"GP","name":"JAMAICA PK DENT","address":"1521 JERICHO TPK","city":"NEW HYDE PARK","state":"NY ","zipcode":11040,"phone":"718-657-5100","cartodb_georef_status":true,"typefull":"General Practitioner"}},{"type":"Feature","geometry":{"type":"Point","coordinates":[-101.42396,36.86318]},"properties":{"cartodb_id":372,"type":"GP","name":"PREETIKA GUPTA","address":"1521 STRAIGHT PATH","city":"WYANDANCH","state":"NY ","zipcode":11798,"phone":"631-643-3800","cartodb_georef_status":true,"typefull":"General Practitioner"}},{"type":"Feature","geometry":{"type":"Point","coordinates":[-73.95454,40.73005]},"properties":{"cartodb_id":201,"type":"GP","name":"GREENPOINT DENT","address":"152 GREENPOINT AVE","city":"BROOKLYN","state":"NY ","zipcode":11222,"phone":"718-389-8000","cartodb_georef_status":true,"typefull":"General Practitioner"}},{"type":"Feature","geometry":{"type":"Point","coordinates":[-73.92567,40.8634]},"properties":{"cartodb_id":45,"type":"GP","name":"M A MILLER","address":"153 DYCKMAN STREET","city":"NEW YORK","state":"NY ","zipcode":10040,"phone":"212-569-5300","cartodb_georef_status":true,"typefull":"General Practitioner"}},{"type":"Feature","geometry":{"type":"Point","coordinates":[-73.87627,40.82918]},"properties":{"cartodb_id":107,"type":"GP","name":"GRANT KANTOR CH","address":"1581 WESTCHESTER AVE","city":"BRONX","state":"NY ","zipcode":10472,"phone":"718-378-5030","cartodb_georef_status":true,"typefull":"General Practitioner"}},{"type":"Feature","geometry":{"type":"Point","coordinates":[-73.92536,40.71249]},"properties":{"cartodb_id":362,"type":"GP","name":"GOLDEN DEN CARE","address":"158 GARDINERS AVE","city":"LEVITTOWN","state":"NY ","zipcode":11756,"phone":"516-261-9595","cartodb_georef_status":true,"typefull":"General Practitioner"}},{"type":"Feature","geometry":{"type":"Point","coordinates":[-101.42396,36.86318]},"properties":{"cartodb_id":371,"type":"GP","name":"MODERN DENTAL","address":"1595 STRAIGHT PATH","city":"WYANDACH","state":"NY ","zipcode":11798,"phone":"631-643-3800","cartodb_georef_status":true,"typefull":"General Practitioner"}},{"type":"Feature","geometry":{"type":"Point","coordinates":[-73.99829,40.62218]},"properties":{"cartodb_id":9,"type":"GP","name":"EAST VILL DENT","address":"15 AVENUE A GROUND FL  ","city":"NEW YORK","state":"NY ","zipcode":10009,"phone":"212-677-2510","cartodb_georef_status":true,"typefull":"General Practitioner"}},{"type":"Feature","geometry":{"type":"Point","coordinates":[-73.79785,40.70368]},"properties":{"cartodb_id":332,"type":"GP","name":"TCN DENTAL CARE","address":"161-10 JAMAICA AVE#313 ","city":"JAMAICA","state":"NY ","zipcode":11432,"phone":"718-523-8400","cartodb_georef_status":true,"typefull":"General Practitioner"}},{"type":"Feature","geometry":{"type":"Point","coordinates":[-73.99467,40.69049]},"properties":{"cartodb_id":151,"type":"GP","name":"S&Y DIAMOND DEN","address":"161 ATLANTIC AVE-1STFL ","city":"BROOKLYN","state":"NY ","zipcode":11201,"phone":"718-625-3106","cartodb_georef_status":true,"typefull":"General Practitioner"}},{"type":"Feature","geometry":{"type":"Point","coordinates":[-73.8982,40.64171]},"properties":{"cartodb_id":242,"type":"GP","name":"J BENDER","address":"1625 ROCKAWAY PKY 1L","city":"BROOKLYN","state":"NY ","zipcode":11236,"phone":"718-444-6226","cartodb_georef_status":true,"typefull":"General Practitioner"}},{"type":"Feature","geometry":{"type":"Point","coordinates":[-73.98028,40.76464]},"properties":{"cartodb_id":18,"type":"GP","name":"J P GULBENKIAN","address":"162 W 56 ST #503","city":"NEW YORK","state":"NY ","zipcode":10019,"phone":"212-977-6765","cartodb_georef_status":true,"typefull":"General Practitioner"}},{"type":"Feature","geometry":{"type":"Point","coordinates":[-73.93836,40.82152]},"properties":{"cartodb_id":43,"type":"GP","name":"HARLEM DENTAL","address":"163 W 145TH STREET","city":"NEW YORK","state":"NY ","zipcode":10039,"phone":"212-281-9200","cartodb_georef_status":true,"typefull":"General Practitioner"}},{"type":"Feature","geometry":{"type":"Point","coordinates":[-74.59834,41.44574]},"properties":{"cartodb_id":358,"type":"GP","name":"P MATHUR","address":"1644 DEER PARK AVE","city":"DEER PARK","state":"NY ","zipcode":11729,"phone":"631-586-7100","cartodb_georef_status":true,"typefull":"General Practitioner"}},{"type":"Feature","geometry":{"type":"Point","coordinates":[-73.95446,40.60985]},"properties":{"cartodb_id":226,"type":"GP","name":"J SHATZKAMER","address":"1645 EAST 19TH STREET  ","city":"BROOKLYN","state":"NY ","zipcode":11229,"phone":"718-376-6329","cartodb_georef_status":true,"typefull":"General Practitioner"}},{"type":"Feature","geometry":{"type":"Point","coordinates":[-73.7695,40.68513]},"properties":{"cartodb_id":333,"type":"GP","name":"ROCHDALE DENTAL","address":"165-44A BAISLEY BLVD","city":"JAMAICA","state":"NY ","zipcode":11434,"phone":"718-723-5656","cartodb_georef_status":true,"typefull":"General Practitioner"}},{"type":"Feature","geometry":{"type":"Point","coordinates":[-73.94361,40.63069]},"properties":{"cartodb_id":171,"type":"GP","name":"I FEIGENBAUM","address":"1655 FLATBUSH AVE","city":"BROOKLYN","state":"NY ","zipcode":11210,"phone":"718-377-1319","cartodb_georef_status":true,"typefull":"General Practitioner"}},{"type":"Feature","geometry":{"type":"Point","coordinates":[-73.80138,40.7227]},"properties":{"cartodb_id":490,"type":"OR","name":"S KOHAN","address":"166-15 UNION TURNPIKE  ","city":"FLUSHING","state":"NY ","zipcode":11366,"phone":"718-591-6100","cartodb_georef_status":true,"typefull":"Orthodontist"}},{"type":"Feature","geometry":{"type":"Point","coordinates":[-73.98367,40.74706]},"properties":{"cartodb_id":14,"type":"GP","name":"LEONID AGRANAT","address":"168 MADISON AVE","city":"NEW YORK","state":"NY ","zipcode":10016,"phone":"212-889-9200","cartodb_georef_status":true,"typefull":"General Practitioner"}},{"type":"Feature","geometry":{"type":"Point","coordinates":[-73.79352,40.71273]},"properties":{"cartodb_id":331,"type":"GP","name":"SAMINA HAQUE","address":"169-11 HIGHLAND AVENUE ","city":"JAMAICA","state":"NY ","zipcode":11432,"phone":"646-884-4094","cartodb_georef_status":true,"typefull":"General Practitioner"}},{"type":"Feature","geometry":{"type":"Point","coordinates":[-73.82298,40.84718]},"properties":{"cartodb_id":126,"type":"GP","name":"AESTHETIC DENT","address":"169 N MIDDLETON RD","city":"PEARL RIVER","state":"NY ","zipcode":10965,"phone":"845-735-7500","cartodb_georef_status":true,"typefull":"General Practitioner"}},{"type":"Feature","geometry":{"type":"Point","coordinates":[-73.977494,40.751856]},"properties":{"cartodb_id":118,"type":"GP","name":"PARK AVE SMILE","address":"169 PARK AVE","city":"YONKERS","state":"NY ","zipcode":10703,"phone":"914-965-3864","cartodb_georef_status":true,"typefull":"General Practitioner"}},{"type":"Feature","geometry":{"type":"Point","coordinates":[-73.9175,40.70337]},"properties":{"cartodb_id":247,"type":"GP","name":"BONET MIRIAM","address":"169 WYCOFF AVE","city":"BROOKLYN","state":"NY ","zipcode":11237,"phone":"646-393-5454","cartodb_georef_status":true,"typefull":"General Practitioner"}},{"type":"Feature","geometry":{"type":"Point","coordinates":[-73.89661,40.6398]},"properties":{"cartodb_id":245,"type":"GP","name":"GLEN MED DENTAL","address":"1702 ROCKAWAY PARKWAY  ","city":"BROOKLYN","state":"NY ","zipcode":11236,"phone":"718-763-2800","cartodb_georef_status":true,"typefull":"General Practitioner"}},{"type":"Feature","geometry":{"type":"Point","coordinates":[-73.96752,40.60593]},"properties":{"cartodb_id":579,"type":"PE","name":"K MARCUS","address":"1750 OCEAN PKWY STE 1A ","city":"BROOKLYN","state":"NY ","zipcode":11223,"phone":"718-375-7760","cartodb_georef_status":true,"typefull":"Periodontist"}},{"type":"Feature","geometry":{"type":"Point","coordinates":[-85.97434,39.50715]},"properties":{"cartodb_id":407,"type":"MS","name":"QUALITY DENTAL","address":"175 FRANKLIN AVE # 101 ","city":"NUTLEY","state":"NJ ","zipcode":7110,"phone":"973-284-1011","cartodb_georef_status":true,"typefull":"Multiple Specialist"}},{"type":"Feature","geometry":{"type":"Point","coordinates":[-73.89521,40.638962]},"properties":{"cartodb_id":243,"type":"GP","name":"CANARSIE DENTAL","address":"1761 ROCKAWAY BLVD","city":"BROOKLYN","state":"NY ","zipcode":11236,"phone":"718-531-9100","cartodb_georef_status":true,"typefull":"General Practitioner"}},{"type":"Feature","geometry":{"type":"Point","coordinates":[-73.98922,40.62058]},"properties":{"cartodb_id":155,"type":"GP","name":"M SLUTZKY","address":"1779 63RD ST","city":"BROOKLYN","state":"NY ","zipcode":11204,"phone":"718-232-9117","cartodb_georef_status":true,"typefull":"General Practitioner"}},{"type":"Feature","geometry":{"type":"Point","coordinates":[-73.9868,40.6902]},"properties":{"cartodb_id":573,"type":"PE","name":"DR. MOHAJER","address":"177 LIVINGSTON ST-G/FL ","city":"BROOKLYN","state":"NY ","zipcode":11201,"phone":"718-403-0700","cartodb_georef_status":true,"typefull":"Periodontist"}},{"type":"Feature","geometry":{"type":"Point","coordinates":[-73.9868,40.6902]},"properties":{"cartodb_id":536,"type":"OS","name":"DR. D LORENZO","address":"177 LIVINGSTON ST-GRFL ","city":"BROOKLYN","state":"NY ","zipcode":11201,"phone":"718-403-0700","cartodb_georef_status":true,"typefull":"Oral Surgeon"}},{"type":"Feature","geometry":{"type":"Point","coordinates":[-73.9868,40.6902]},"properties":{"cartodb_id":535,"type":"OS","name":"R C BENN","address":"177 LIVINGSTON ST","city":"BROOKLYN","state":"NY ","zipcode":11201,"phone":"718-403-0700","cartodb_georef_status":true,"typefull":"Oral Surgeon"}},{"type":"Feature","geometry":{"type":"Point","coordinates":[-73.9868,40.6902]},"properties":{"cartodb_id":147,"type":"GP","name":"HANSON PL DENT","address":"177 LIVINGSTON ST","city":"BROOKLYN","state":"NY ","zipcode":11201,"phone":"718-403-0700","cartodb_georef_status":true,"typefull":"General Practitioner"}},{"type":"Feature","geometry":{"type":"Point","coordinates":[-73.9868,40.6902]},"properties":{"cartodb_id":401,"type":"EN","name":"R RICHARD GIDDON  ","address":"177 LIVINGSTON STREET  ","city":"BROOKLYN","state":"NY ","zipcode":11201,"phone":"718-260-9477","cartodb_georef_status":true,"typefull":"Endodontist"}},{"type":"Feature","geometry":{"type":"Point","coordinates":[-73.785113,40.712472]},"properties":{"cartodb_id":328,"type":"GP","name":"A GANNESS","address":"178-17 HILLSIDE AVE","city":"JAMAICA","state":"NY ","zipcode":11432,"phone":"718-291-7444","cartodb_georef_status":true,"typefull":"General Practitioner"}},{"type":"Feature","geometry":{"type":"Point","coordinates":[-74.03761,40.76379]},"properties":{"cartodb_id":449,"type":"OR","name":"ORTHO CLUB","address":"17 SUMMIT AVE","city":"HACKENSACK","state":"NJ ","zipcode":7601,"phone":"201-996-0770","cartodb_georef_status":true,"typefull":"Orthodontist"}},{"type":"Feature","geometry":{"type":"Point","coordinates":[-73.95704,40.61847]},"properties":{"cartodb_id":427,"type":"MS","name":"BERNFELD/KORNGO","address":"1801 AVENUE M","city":"BROOKLYN","state":"NY ","zipcode":11230,"phone":"718-252-8989","cartodb_georef_status":true,"typefull":"Multiple Specialist"}},{"type":"Feature","geometry":{"type":"Point","coordinates":[-73.940507,40.625852]},"properties":{"cartodb_id":173,"type":"GP","name":"HORIZON DEN ART","address":"1804 FLATBUSH AVE","city":"BROOKLYN","state":"NY ","zipcode":11210,"phone":"718-253-2000","cartodb_georef_status":true,"typefull":"General Practitioner"}},{"type":"Feature","geometry":{"type":"Point","coordinates":[-73.940507,40.625852]},"properties":{"cartodb_id":176,"type":"GP","name":"VLADRAN DENTAL","address":"1804 FLATBUSH AVE","city":"BROOKLYN","state":"NY ","zipcode":11210,"phone":"718-253-2000","cartodb_georef_status":true,"typefull":"General Practitioner"}},{"type":"Feature","geometry":{"type":"Point","coordinates":[-73.940507,40.625852]},"properties":{"cartodb_id":175,"type":"GP","name":"E KENIGSBERG","address":"1804 FLATBUSH AVE.","city":"BROOKLYN","state":"NY ","zipcode":11210,"phone":"718-253-2000","cartodb_georef_status":true,"typefull":"General Practitioner"}},{"type":"Feature","geometry":{"type":"Point","coordinates":[-73.80314,40.78169]},"properties":{"cartodb_id":583,"type":"PE","name":"WHITESTONE DENT","address":"18-15 FRANCIS LEWIS BL ","city":"WHITESTONE","state":"NY ","zipcode":11357,"phone":"718-769-7276","cartodb_georef_status":true,"typefull":"Periodontist"}},{"type":"Feature","geometry":{"type":"Point","coordinates":[-73.957095,40.716672]},"properties":{"cartodb_id":542,"type":"OS","name":"KESSLER  DAVID","address":"183 NORTH 6TH STREET","city":"BROOKLYN","state":"NY ","zipcode":11211,"phone":"718-388-3737","cartodb_georef_status":true,"typefull":"Oral Surgeon"}},{"type":"Feature","geometry":{"type":"Point","coordinates":[-73.90405,40.87879]},"properties":{"cartodb_id":95,"type":"GP","name":"COHEN'S GEN DEN","address":"183 WEST 231 STREET","city":"BRONX","state":"NY ","zipcode":10463,"phone":"718-543-1123","cartodb_georef_status":true,"typefull":"General Practitioner"}},{"type":"Feature","geometry":{"type":"Point","coordinates":[-73.75153,40.60329]},"properties":{"cartodb_id":354,"type":"GP","name":"J A SAMUDIO","address":"1847 MOTT AVE  2ND FL  ","city":"FAR-ROCKAWAY","state":"NY ","zipcode":11691,"phone":"718-327-7000","cartodb_georef_status":true,"typefull":"General Practitioner"}},{"type":"Feature","geometry":{"type":"Point","coordinates":[-73.118654,40.934875]},"properties":{"cartodb_id":373,"type":"GP","name":"KANE DENT.HICKS","address":"184 OLD COUNTRY RD.","city":"HICKSVILLE","state":"NY ","zipcode":11801,"phone":"516-931-4500","cartodb_georef_status":true,"typefull":"General Practitioner"}},{"type":"Feature","geometry":{"type":"Point","coordinates":[-73.91731,40.8342]},"properties":{"cartodb_id":78,"type":"GP","name":"MOHAMMAD HAQUE","address":"188 E.167TH ST.","city":"BRONX","state":"NY ","zipcode":10456,"phone":"718-588-8000","cartodb_georef_status":true,"typefull":"General Practitioner"}},{"type":"Feature","geometry":{"type":"Point","coordinates":[-73.97604,40.75795]},"properties":{"cartodb_id":23,"type":"GP","name":"NYRBF DDS PC","address":"18 EAST 50TH ST 8TH FL ","city":"NEW YORK","state":"NY ","zipcode":10022,"phone":"212-688-2452","cartodb_georef_status":true,"typefull":"General Practitioner"}},{"type":"Feature","geometry":{"type":"Point","coordinates":[-73.7693,40.7117]},"properties":{"cartodb_id":555,"type":"OS","name":"HOLLIS ADV DENT","address":"190-02 JAMAICA AVE-2FL ","city":"HOLLIS","state":"NY ","zipcode":11423,"phone":"718-454-7418","cartodb_georef_status":true,"typefull":"Oral Surgeon"}},{"type":"Feature","geometry":{"type":"Point","coordinates":[-73.94914,40.58397]},"properties":{"cartodb_id":240,"type":"GP","name":"P ` SCHAFFER","address":"1901 EMMONS AVE","city":"BROOKLYN","state":"NY ","zipcode":11235,"phone":"718-646-6600","cartodb_georef_status":true,"typefull":"General Practitioner"}},{"type":"Feature","geometry":{"type":"Point","coordinates":[-73.94167,40.80405]},"properties":{"cartodb_id":461,"type":"OR","name":"MADISON AVE ORT","address":"1901 MADISON AVE","city":"NEW YORK","state":"NY ","zipcode":10035,"phone":"212-996-7300","cartodb_georef_status":true,"typefull":"Orthodontist"}},{"type":"Feature","geometry":{"type":"Point","coordinates":[-73.94167,40.80405]},"properties":{"cartodb_id":462,"type":"OR","name":"MADISON AVEORTH","address":"1901 MADISON AVE","city":"NEW YORK","state":"NY ","zipcode":10035,"phone":"212-996-7300","cartodb_georef_status":true,"typefull":"Orthodontist"}},{"type":"Feature","geometry":{"type":"Point","coordinates":[-73.945,40.79143]},"properties":{"cartodb_id":28,"type":"GP","name":"HARLEM FAM DENT","address":"1916 THIRD AVE","city":"NEW YORK","state":"NY ","zipcode":10029,"phone":"212-348-1177","cartodb_georef_status":true,"typefull":"General Practitioner"}},{"type":"Feature","geometry":{"type":"Point","coordinates":[-74.009608,40.710478]},"properties":{"cartodb_id":356,"type":"GP","name":"SASHA CEKADA","address":"193 BROADWAY SUITE #2  ","city":"AMITYVILLE","state":"NY ","zipcode":11701,"phone":"631-598-2940","cartodb_georef_status":true,"typefull":"General Practitioner"}},{"type":"Feature","geometry":{"type":"Point","coordinates":[-73.91012,40.85416]},"properties":{"cartodb_id":69,"type":"GP","name":"J PHILLIP","address":"1942 HARRISON AVE","city":"BRONX","state":"NY ","zipcode":10453,"phone":"718-299-2972","cartodb_georef_status":true,"typefull":"General Practitioner"}},{"type":"Feature","geometry":{"type":"Point","coordinates":[-73.93615,40.62236]},"properties":{"cartodb_id":231,"type":"GP","name":"B N GRAYSON","address":"1951 FLATBUSH AVE","city":"BROOKLYN","state":"NY ","zipcode":11234,"phone":"718-258-4500","cartodb_georef_status":true,"typefull":"General Practitioner"}},{"type":"Feature","geometry":{"type":"Point","coordinates":[-73.55893,40.68668]},"properties":{"cartodb_id":351,"type":"GP","name":"D GILMAN","address":"1955 MERRICK ROAD.#200 ","city":"MERRICK","state":"NY ","zipcode":11566,"phone":"516-867-0804","cartodb_georef_status":true,"typefull":"General Practitioner"}},{"type":"Feature","geometry":{"type":"Point","coordinates":[-73.90521,40.85095]},"properties":{"cartodb_id":67,"type":"GP","name":"EMPIRE DENTCARE","address":"1963 GRND CONCOURSE-LL ","city":"BRONX","state":"NY ","zipcode":10453,"phone":"718-294-8800","cartodb_georef_status":true,"typefull":"General Practitioner"}},{"type":"Feature","geometry":{"type":"Point","coordinates":[-73.96204,40.60926]},"properties":{"cartodb_id":204,"type":"GP","name":"DENTAL SPECIAL","address":"1965 CONEY ISLAND AVE  ","city":"BROOKLYN","state":"NY ","zipcode":11223,"phone":"718-998-0062","cartodb_georef_status":true,"typefull":"General Practitioner"}},{"type":"Feature","geometry":{"type":"Point","coordinates":[-73.765277,40.718592]},"properties":{"cartodb_id":592,"type":"PE","name":"ADVAN.PERIO.CAR","address":"197-11 HILLSIDE AVENUE ","city":"HOLLIS","state":"NY ","zipcode":11423,"phone":"718-740-6000","cartodb_georef_status":true,"typefull":"Periodontist"}},{"type":"Feature","geometry":{"type":"Point","coordinates":[-73.765277,40.718592]},"properties":{"cartodb_id":554,"type":"OS","name":"DENTAL SPECIAL","address":"197-11 HILLSIDE AVE.","city":"HOLLIS","state":"NY ","zipcode":11423,"phone":"718-740-6000","cartodb_georef_status":true,"typefull":"Oral Surgeon"}},{"type":"Feature","geometry":{"type":"Point","coordinates":[-74.09806,40.58177]},"properties":{"cartodb_id":415,"type":"MS","name":"YELENA KHRAPKO","address":"1975 HYLAN BLVD STE #2 ","city":"STATEN ISLAND","state":"NY ","zipcode":10306,"phone":"718-351-0012","cartodb_georef_status":true,"typefull":"Multiple Specialist"}},{"type":"Feature","geometry":{"type":"Point","coordinates":[-73.953351,40.821271]},"properties":{"cartodb_id":30,"type":"GP","name":"G SCHATZBERG","address":"19 HAMILTON PLACE","city":"NEW YORK","state":"NY ","zipcode":10031,"phone":"212-234-4800","cartodb_georef_status":true,"typefull":"General Practitioner"}},{"type":"Feature","geometry":{"type":"Point","coordinates":[-73.92566,40.86475]},"properties":{"cartodb_id":38,"type":"GP","name":"SHERMAN DNT ASC","address":"19 VERMILYEA AVE--3A","city":"NEW YORK","state":"NY ","zipcode":10034,"phone":"212-942-0699","cartodb_georef_status":true,"typefull":"General Practitioner"}},{"type":"Feature","geometry":{"type":"Point","coordinates":[-78.145845,38.963265]},"properties":{"cartodb_id":379,"type":"GP","name":"S J BECKER","address":"1-B RIVERDALE DR","city":"HAMPTON","state":"VA ","zipcode":23666,"phone":"757-838-7879","cartodb_georef_status":true,"typefull":"General Practitioner"}},{"type":"Feature","geometry":{"type":"Point","coordinates":[-73.90059,40.86277]},"properties":{"cartodb_id":99,"type":"GP","name":"COHEN GENTLEDEN","address":"1 E FORDHAM ROAD STE 4 ","city":"BRONX","state":"NY ","zipcode":10468,"phone":"718-365-0990","cartodb_georef_status":true,"typefull":"General Practitioner"}},{"type":"Feature","geometry":{"type":"Point","coordinates":[-73.85777,40.83502]},"properties":{"cartodb_id":93,"type":"GP","name":"F PARVEEN","address":"2002 MCGRAW AVE 1ST FL ","city":"BRONX","state":"NY ","zipcode":10462,"phone":"718-239-8250","cartodb_georef_status":true,"typefull":"General Practitioner"}},{"type":"Feature","geometry":{"type":"Point","coordinates":[-74.00897,40.7104]},"properties":{"cartodb_id":509,"type":"OR","name":"DIAMOND BRACES","address":"200 BROADWAY MALL","city":"HICKSVILLE","state":"NY ","zipcode":11801,"phone":"516-797-7799","cartodb_georef_status":true,"typefull":"Orthodontist"}},{"type":"Feature","geometry":{"type":"Point","coordinates":[-73.76286,40.7199]},"properties":{"cartodb_id":316,"type":"GP","name":"AMERICAN DENTAL","address":"201-01 HILLSIDE AVE","city":"HOLLIS","state":"NY ","zipcode":11423,"phone":"718-479-2120","cartodb_georef_status":true,"typefull":"General Practitioner"}},{"type":"Feature","geometry":{"type":"Point","coordinates":[-74.00092,40.60123]},"properties":{"cartodb_id":183,"type":"GP","name":"PARVEEN BHATTI","address":"2015 BATH AVE STE R-1  ","city":"BROOKLYN","state":"NY ","zipcode":11214,"phone":"718-313-0065","cartodb_georef_status":true,"typefull":"General Practitioner"}},{"type":"Feature","geometry":{"type":"Point","coordinates":[-73.90464,40.85165]},"properties":{"cartodb_id":68,"type":"GP","name":"NEW YORK DENTAL","address":"2015 GRAND CONCOURSE","city":"BRONX","state":"NY ","zipcode":10453,"phone":"917-801-4777","cartodb_georef_status":true,"typefull":"General Practitioner"}},{"type":"Feature","geometry":{"type":"Point","coordinates":[-73.95439,40.61847]},"properties":{"cartodb_id":574,"type":"PE","name":"T ABITBOL DDS PC  ","address":"2016 AVENUE M","city":"BROOKLYN","state":"NY ","zipcode":11210,"phone":"718-253-2300","cartodb_georef_status":true,"typefull":"Periodontist"}},{"type":"Feature","geometry":{"type":"Point","coordinates":[-73.95439,40.61847]},"properties":{"cartodb_id":168,"type":"GP","name":"ALL SMILE DENT","address":"2016 AVENUE M","city":"BROOKLYN","state":"NY ","zipcode":11210,"phone":"718-253-2300","cartodb_georef_status":true,"typefull":"General Practitioner"}},{"type":"Feature","geometry":{"type":"Point","coordinates":[-73.94525,40.79022]},"properties":{"cartodb_id":27,"type":"GP","name":"P C EAST HARLEM D ","address":"201 E 104TH STREET","city":"NEW YORK","state":"NY ","zipcode":10029,"phone":"212-348-5492","cartodb_georef_status":true,"typefull":"General Practitioner"}},{"type":"Feature","geometry":{"type":"Point","coordinates":[-73.95897,40.64349]},"properties":{"cartodb_id":214,"type":"GP","name":"BROOKLYN BRIGHT","address":"2020 CORTELYOU RD.1 FL ","city":"BROOKLYN","state":"NY ","zipcode":11226,"phone":"718-703-2020","cartodb_georef_status":true,"typefull":"General Practitioner"}},{"type":"Feature","geometry":{"type":"Point","coordinates":[-74.162,40.59822]},"properties":{"cartodb_id":524,"type":"OS","name":"ADVAN.ORAL.SURG","address":"2025 RICHMOND AVENUE","city":"STATEN ISLAND","state":"NY ","zipcode":10314,"phone":"718-761-0500","cartodb_georef_status":true,"typefull":"Oral Surgeon"}},{"type":"Feature","geometry":{"type":"Point","coordinates":[-74.162,40.59822]},"properties":{"cartodb_id":466,"type":"OR","name":"RICHMOND ORTHO","address":"2025 RICHMOND AVE","city":"STATEN ISLAND","state":"NY ","zipcode":10314,"phone":"718-477-7711","cartodb_georef_status":true,"typefull":"Orthodontist"}},{"type":"Feature","geometry":{"type":"Point","coordinates":[-74.162,40.59822]},"properties":{"cartodb_id":465,"type":"OR","name":"RICHMOND AVENUE","address":"2025 RICHMOND AVE","city":"STATEN ISLAND","state":"NY ","zipcode":10314,"phone":"718-477-7711","cartodb_georef_status":true,"typefull":"Orthodontist"}},{"type":"Feature","geometry":{"type":"Point","coordinates":[-74.162,40.59822]},"properties":{"cartodb_id":464,"type":"OR","name":"RICHMD.AVE.ORTH","address":"2025 RICHMOND AVE.","city":"STATEN ISLAND","state":"NY ","zipcode":10314,"phone":"718-477-7711","cartodb_georef_status":true,"typefull":"Orthodontist"}},{"type":"Feature","geometry":{"type":"Point","coordinates":[-73.70254,40.75314]},"properties":{"cartodb_id":476,"type":"OR","name":"M R LOBEL","address":"2035 LAKEVILLE ROAD","city":"NEW HYDE PARK","state":"NY ","zipcode":11040,"phone":"516-775-9393","cartodb_georef_status":true,"typefull":"Orthodontist"}},{"type":"Feature","geometry":{"type":"Point","coordinates":[-73.94481,40.72568]},"properties":{"cartodb_id":200,"type":"GP","name":"AIR TOUCH DENT","address":"203 NASSAU AVENUE","city":"BROOKLYN","state":"NY ","zipcode":11222,"phone":"718-383-1270","cartodb_georef_status":true,"typefull":"General Practitioner"}},{"type":"Feature","geometry":{"type":"Point","coordinates":[-73.930566,40.858771]},"properties":{"cartodb_id":318,"type":"GP","name":"LAROCHE CECILIA","address":"205-07 HILLSIDE AVE-17 ","city":"HOLLIS","state":"NY ","zipcode":11423,"phone":"718-776-0600","cartodb_georef_status":true,"typefull":"General Practitioner"}},{"type":"Feature","geometry":{"type":"Point","coordinates":[-73.931212,40.859037]},"properties":{"cartodb_id":317,"type":"GP","name":"HILLSIDE FAMILY","address":"205-07 HILLSIDE AVE-#1 ","city":"HOLLIS","state":"NY ","zipcode":11423,"phone":"718-776-5363","cartodb_georef_status":true,"typefull":"General Practitioner"}},{"type":"Feature","geometry":{"type":"Point","coordinates":[-74.13453,40.63618]},"properties":{"cartodb_id":47,"type":"GP","name":"A N CHAINANI  P.C ","address":"205 PORT RICHMOND","city":"STATEN ISLAND","state":"NY ","zipcode":10302,"phone":"718-727-2555","cartodb_georef_status":true,"typefull":"General Practitioner"}},{"type":"Feature","geometry":{"type":"Point","coordinates":[-73.75931,40.72151]},"properties":{"cartodb_id":593,"type":"PE","name":"R BOGUSLAW","address":"206-07 HILLSIDE AVE","city":"HOLLIS HILLS","state":"NY ","zipcode":11427,"phone":"718-468-7373","cartodb_georef_status":true,"typefull":"Periodontist"}},{"type":"Feature","geometry":{"type":"Point","coordinates":[-73.937715,40.804221]},"properties":{"cartodb_id":39,"type":"GP","name":"P C PAVEL NDERMAN ","address":"2060 LEXINGTON AVE","city":"NEW YORK","state":"NY ","zipcode":10035,"phone":"212-996-5996","cartodb_georef_status":true,"typefull":"General Practitioner"}},{"type":"Feature","geometry":{"type":"Point","coordinates":[-73.94234,40.79107]},"properties":{"cartodb_id":26,"type":"GP","name":"DM DENTAL PLLC","address":"2071 2ND AVENUE","city":"NEW YORK","state":"NY ","zipcode":10029,"phone":"212-410-6969","cartodb_georef_status":true,"typefull":"General Practitioner"}},{"type":"Feature","geometry":{"type":"Point","coordinates":[-73.95471,40.59922]},"properties":{"cartodb_id":227,"type":"GP","name":"Y USTININA","address":"2084 E. 17TH STREET","city":"BROOKLYN","state":"NY ","zipcode":11229,"phone":"347-492-6801","cartodb_georef_status":true,"typefull":"General Practitioner"}},{"type":"Feature","geometry":{"type":"Point","coordinates":[-73.94884,40.80873]},"properties":{"cartodb_id":413,"type":"MS","name":"J BARCESSAT","address":"2090 7TH AVE","city":"NEW YORK","state":"NY ","zipcode":10027,"phone":"212-749-2222","cartodb_georef_status":true,"typefull":"Multiple Specialist"}},{"type":"Feature","geometry":{"type":"Point","coordinates":[-73.98227,40.74824]},"properties":{"cartodb_id":12,"type":"GP","name":"V M BROWN","address":"20 E 35TH STREET 2A","city":"NEW YORK","state":"NY ","zipcode":10016,"phone":"212-685-4217","cartodb_georef_status":true,"typefull":"General Practitioner"}},{"type":"Feature","geometry":{"type":"Point","coordinates":[-73.97789,40.75545]},"properties":{"cartodb_id":411,"type":"MS","name":"MANHATTAN DENT","address":"20 E 46 ST STE 400","city":"NEW YORK","state":"NY ","zipcode":10017,"phone":"212-426-3790","cartodb_georef_status":true,"typefull":"Multiple Specialist"}},{"type":"Feature","geometry":{"type":"Point","coordinates":[-73.97789,40.75545]},"properties":{"cartodb_id":412,"type":"MS","name":"MANHATTAN DENTA","address":"20 E 46TH ST SUT #400  ","city":"NEW YORK","state":"NY ","zipcode":10017,"phone":"212-426-3790","cartodb_georef_status":true,"typefull":"Multiple Specialist"}},{"type":"Feature","geometry":{"type":"Point","coordinates":[-73.9818,40.77991]},"properties":{"cartodb_id":457,"type":"OR","name":"R J TOPAL","address":"2109 BROADWAY  STE 201 ","city":"NEW YORK","state":"NY ","zipcode":10023,"phone":"212-874-0030","cartodb_georef_status":true,"typefull":"Orthodontist"}},{"type":"Feature","geometry":{"type":"Point","coordinates":[-73.992158,40.689471]},"properties":{"cartodb_id":349,"type":"GP","name":"ALAN ROSEN","address":"210 ATLANTIC AVE- #AA3 ","city":"LYNBROOK","state":"NY ","zipcode":11563,"phone":"516-596-7766","cartodb_georef_status":true,"typefull":"General Practitioner"}},{"type":"Feature","geometry":{"type":"Point","coordinates":[-73.93111,40.7646]},"properties":{"cartodb_id":142,"type":"GP","name":"CUCEREANU D","address":"21-20 BROADWAY","city":"ASTORIA","state":"NY ","zipcode":11106,"phone":"718-255-6193","cartodb_georef_status":true,"typefull":"General Practitioner"}},{"type":"Feature","geometry":{"type":"Point","coordinates":[-73.777886,40.781453]},"properties":{"cartodb_id":257,"type":"GP","name":"ALLY DENTAL PC","address":"21230 23RD AVE #L2","city":"BAYSIDE","state":"NY ","zipcode":11360,"phone":"347-246-5288","cartodb_georef_status":true,"typefull":"General Practitioner"}},{"type":"Feature","geometry":{"type":"Point","coordinates":[-73.93861,40.79191]},"properties":{"cartodb_id":29,"type":"GP","name":"P&R EXECUTIVE","address":"2127 FIRST AVE","city":"NEW YORK","state":"NY ","zipcode":10029,"phone":"212-426-8202","cartodb_georef_status":true,"typefull":"General Practitioner"}},{"type":"Feature","geometry":{"type":"Point","coordinates":[-73.86274,40.85495]},"properties":{"cartodb_id":570,"type":"PE","name":"H S SILVERBRAND D ","address":"2136 MATTHEWS AVE","city":"BRONX","state":"NY ","zipcode":10462,"phone":"718-409-1610","cartodb_georef_status":true,"typefull":"Periodontist"}},{"type":"Feature","geometry":{"type":"Point","coordinates":[-73.91769,40.625221]},"properties":{"cartodb_id":230,"type":"GP","name":"GEORGETOWN DENT","address":"2167 A RALPH AVE","city":"BROOKLYN","state":"NY ","zipcode":11234,"phone":"718-676-7700","cartodb_georef_status":true,"typefull":"General Practitioner"}},{"type":"Feature","geometry":{"type":"Point","coordinates":[-73.91769,40.625221]},"properties":{"cartodb_id":236,"type":"GP","name":"SIMBA LLC","address":"2167A RALPH AVE","city":"BROOKLYN","state":"NY ","zipcode":11234,"phone":"718-676-7700","cartodb_georef_status":true,"typefull":"General Practitioner"}},{"type":"Feature","geometry":{"type":"Point","coordinates":[-73.93906,40.79957]},"properties":{"cartodb_id":521,"type":"OS","name":"MANHATTAN ORAL","address":"2168 THIRD AVE","city":"NEW YORK","state":"NY ","zipcode":10035,"phone":"646-360-4840","cartodb_georef_status":true,"typefull":"Oral Surgeon"}},{"type":"Feature","geometry":{"type":"Point","coordinates":[-73.86786,40.85571]},"properties":{"cartodb_id":90,"type":"GP","name":"COHEN'S GEN DEN","address":"2169 WHITE PLAINS RD","city":"BRONX","state":"NY ","zipcode":10462,"phone":"718-597-6314","cartodb_georef_status":true,"typefull":"General Practitioner"}},{"type":"Feature","geometry":{"type":"Point","coordinates":[-73.746549,40.728441]},"properties":{"cartodb_id":320,"type":"GP","name":"AESTHETICARE PC","address":"218-16 HILLSIDE AVE","city":"QUEENS VILLAGE  ","state":"NY ","zipcode":11427,"phone":"718-464-5666","cartodb_georef_status":true,"typefull":"General Practitioner"}},{"type":"Feature","geometry":{"type":"Point","coordinates":[-73.73749,40.71355]},"properties":{"cartodb_id":323,"type":"GP","name":"L.JOANNE ST.PAU","address":"218-20 HEMPSTEAD AVE.2 ","city":"QUEENS VILLAGE  ","state":"NY ","zipcode":11429,"phone":"718-217-8700","cartodb_georef_status":true,"typefull":"General Practitioner"}},{"type":"Feature","geometry":{"type":"Point","coordinates":[-73.86368,40.8566]},"properties":{"cartodb_id":92,"type":"GP","name":"FRIENDLY SMILE","address":"2198 BARNES AVE","city":"BRONX","state":"NY ","zipcode":10462,"phone":"718-863-4141","cartodb_georef_status":true,"typefull":"General Practitioner"}},{"type":"Feature","geometry":{"type":"Point","coordinates":[-73.99296,40.60224]},"properties":{"cartodb_id":182,"type":"GP","name":"Z MORAL","address":"2200 85TH STREET","city":"BROOKLYN","state":"NY ","zipcode":11214,"phone":"516-974-9203","cartodb_georef_status":true,"typefull":"General Practitioner"}},{"type":"Feature","geometry":{"type":"Point","coordinates":[-73.90054,40.85582]},"properties":{"cartodb_id":418,"type":"MS","name":"GRANT & KANTOR","address":"2202 GRAND CONCOURSE","city":"BRONX","state":"NY ","zipcode":10457,"phone":"718-365-6389","cartodb_georef_status":true,"typefull":"Multiple Specialist"}},{"type":"Feature","geometry":{"type":"Point","coordinates":[-73.90054,40.85582]},"properties":{"cartodb_id":83,"type":"GP","name":"NEW YORK DENTAL","address":"2202 GRAND CONCOURSE","city":"BRONX","state":"NY ","zipcode":10457,"phone":"718-365-6389","cartodb_georef_status":true,"typefull":"General Practitioner"}},{"type":"Feature","geometry":{"type":"Point","coordinates":[-73.956802,40.652895]},"properties":{"cartodb_id":219,"type":"GP","name":"LARACUENTE","address":"2233 CATON AVE","city":"BROOKLYN","state":"NY ","zipcode":11226,"phone":"718-282-0077","cartodb_georef_status":true,"typefull":"General Practitioner"}},{"type":"Feature","geometry":{"type":"Point","coordinates":[-73.956802,40.652895]},"properties":{"cartodb_id":215,"type":"GP","name":"BUDIYANSKAYA","address":"2233 CATON AVE","city":"BROOKLYN","state":"NY ","zipcode":11226,"phone":"718-282-8066","cartodb_georef_status":true,"typefull":"General Practitioner"}},{"type":"Feature","geometry":{"type":"Point","coordinates":[-73.956802,40.652895]},"properties":{"cartodb_id":220,"type":"GP","name":"WIKTOVZAK","address":"2233 CATON AVE","city":"BROOKLYN","state":"NY ","zipcode":11226,"phone":"718-282-0077","cartodb_georef_status":true,"typefull":"General Practitioner"}},{"type":"Feature","geometry":{"type":"Point","coordinates":[-74.34018,40.29696]},"properties":{"cartodb_id":450,"type":"OR","name":"J STORM","address":"224 TAYLORS MILLS RD","city":"MANALAPAN-S#102 ","state":"NJ ","zipcode":7726,"phone":"732-462-9500","cartodb_georef_status":true,"typefull":"Orthodontist"}},{"type":"Feature","geometry":{"type":"Point","coordinates":[-80.24917,26.26218]},"properties":{"cartodb_id":394,"type":"GP","name":"D A SACHS","address":"2263 S UNIVERSITY DR","city":"DAVIE","state":"FL ","zipcode":33324,"phone":"954-475-0700","cartodb_georef_status":true,"typefull":"General Practitioner"}},{"type":"Feature","geometry":{"type":"Point","coordinates":[-73.89969,40.85722]},"properties":{"cartodb_id":84,"type":"GP","name":"J OCASIO  CARLOS  ","address":"2278 GRAND CONCOURSE","city":"BRONX","state":"NY ","zipcode":10457,"phone":"718-584-2274","cartodb_georef_status":true,"typefull":"General Practitioner"}},{"type":"Feature","geometry":{"type":"Point","coordinates":[-73.89969,40.85722]},"properties":{"cartodb_id":82,"type":"GP","name":"GENTLE DENTAL","address":"2278 GRAND CONCOURSE","city":"BRONX","state":"NY ","zipcode":10457,"phone":"718-584-2274","cartodb_georef_status":true,"typefull":"General Practitioner"}},{"type":"Feature","geometry":{"type":"Point","coordinates":[-73.94,40.70752]},"properties":{"cartodb_id":159,"type":"GP","name":"M R KLEIN PC","address":"228 MONTROSE AVE.","city":"BROOKLYN","state":"NY ","zipcode":11206,"phone":"718-456-5200","cartodb_georef_status":true,"typefull":"General Practitioner"}},{"type":"Feature","geometry":{"type":"Point","coordinates":[-73.919762,40.825861]},"properties":{"cartodb_id":59,"type":"GP","name":"CONCOURSE DENT","address":"230 EAST 161 STREET","city":"BRONX","state":"NY ","zipcode":10451,"phone":"718-992-8200","cartodb_georef_status":true,"typefull":"General Practitioner"}},{"type":"Feature","geometry":{"type":"Point","coordinates":[-73.919762,40.825861]},"properties":{"cartodb_id":60,"type":"GP","name":"CONCOURSE PLAZA","address":"230 EAST 161ST STREET  ","city":"BRONX","state":"NY ","zipcode":10451,"phone":"718-992-8200","cartodb_georef_status":true,"typefull":"General Practitioner"}},{"type":"Feature","geometry":{"type":"Point","coordinates":[-73.98879,40.75583]},"properties":{"cartodb_id":565,"type":"PE","name":"M WOZNIAK","address":"230 WEST 41ST. ST.2FL  ","city":"NEW YORK","state":"NY ","zipcode":10036,"phone":"212-398-9690","cartodb_georef_status":true,"typefull":"Periodontist"}},{"type":"Feature","geometry":{"type":"Point","coordinates":[-73.91354,40.7743]},"properties":{"cartodb_id":480,"type":"OR","name":"R J ASTORIA FAM O ","address":"23-12 31ST STREET","city":"ASTORIA","state":"NY ","zipcode":11105,"phone":"718-278-0358","cartodb_georef_status":true,"typefull":"Orthodontist"}},{"type":"Feature","geometry":{"type":"Point","coordinates":[-73.942823,40.790943]},"properties":{"cartodb_id":519,"type":"OS","name":"EASTSIDE ORAL S","address":"231 EAST 106TH STREET  ","city":"NEW YORK","state":"NY ","zipcode":10029,"phone":"212-348-0020","cartodb_georef_status":true,"typefull":"Oral Surgeon"}},{"type":"Feature","geometry":{"type":"Point","coordinates":[-73.95513,40.646016]},"properties":{"cartodb_id":357,"type":"GP","name":"L GUZMAN","address":"2357 BEDFORD AVE.","city":"BELLMORE","state":"NY ","zipcode":11710,"phone":"516-221-1300","cartodb_georef_status":true,"typefull":"General Practitioner"}},{"type":"Feature","geometry":{"type":"Point","coordinates":[-74.094436,40.585124]},"properties":{"cartodb_id":463,"type":"OR","name":"J TUCKER","address":"235 DONGAN HILLS AV 1B ","city":"STATEN ISLAND","state":"NY ","zipcode":10305,"phone":"718-720-7346","cartodb_georef_status":true,"typefull":"Orthodontist"}},{"type":"Feature","geometry":{"type":"Point","coordinates":[-73.89846,40.85929]},"properties":{"cartodb_id":87,"type":"GP","name":"D FRAENKEL","address":"2374 GRAND CONCOURSE","city":"BRONX","state":"NY ","zipcode":10458,"phone":"718-365-6402","cartodb_georef_status":true,"typefull":"General Practitioner"}},{"type":"Feature","geometry":{"type":"Point","coordinates":[-73.9229,40.80942]},"properties":{"cartodb_id":526,"type":"OS","name":"ADVANCED BRONX","address":"237 WILLIS AVE","city":"BRONX","state":"NY ","zipcode":10454,"phone":"718-292-6209","cartodb_georef_status":true,"typefull":"Oral Surgeon"}},{"type":"Feature","geometry":{"type":"Point","coordinates":[-74.0326,40.62366]},"properties":{"cartodb_id":166,"type":"GP","name":"S FEINTUCH","address":"238 86TH STREET","city":"BROOKLYN","state":"NY ","zipcode":11209,"phone":"718-833-6100","cartodb_georef_status":true,"typefull":"General Practitioner"}},{"type":"Feature","geometry":{"type":"Point","coordinates":[-73.99382,40.72618]},"properties":{"cartodb_id":534,"type":"OS","name":"RODNEY RAST PLL","address":"23 BOND STREET","city":"GREAT NECK","state":"NY ","zipcode":11021,"phone":"516-482-0329","cartodb_georef_status":true,"typefull":"Oral Surgeon"}},{"type":"Feature","geometry":{"type":"Point","coordinates":[-73.89885,40.86055]},"properties":{"cartodb_id":529,"type":"OS","name":"MANHATTAN ORAL","address":"2403 GRAND CONCOURSE","city":"BRONX","state":"NY ","zipcode":10468,"phone":"347-590-8150","cartodb_georef_status":true,"typefull":"Oral Surgeon"}},{"type":"Feature","geometry":{"type":"Point","coordinates":[-73.9009,40.86124]},"properties":{"cartodb_id":102,"type":"GP","name":"E RODRIGUEZ","address":"2406 WALTON AVE-STE B  ","city":"BRONX","state":"NY ","zipcode":10468,"phone":"718-364-7791","cartodb_georef_status":true,"typefull":"General Practitioner"}},{"type":"Feature","geometry":{"type":"Point","coordinates":[-72.94422,40.82112]},"properties":{"cartodb_id":366,"type":"GP","name":"EYAL WALDMAN","address":"240 PATCHOGUE-YAPHANK  ","city":"#104 PATCHOGUE  ","state":"NY ","zipcode":11772,"phone":"631-289-7179","cartodb_georef_status":true,"typefull":"General Practitioner"}},{"type":"Feature","geometry":{"type":"Point","coordinates":[-73.72421,40.73372]},"properties":{"cartodb_id":404,"type":"EN","name":"QUEENS COUNTY","address":"242-08 HILLSIDE AVE","city":"BELLROSE","state":"NY ","zipcode":11426,"phone":"718-962-3001","cartodb_georef_status":true,"typefull":"Endodontist"}},{"type":"Feature","geometry":{"type":"Point","coordinates":[-73.99194,40.57596]},"properties":{"cartodb_id":209,"type":"GP","name":"P C MERMAID DEN A ","address":"2423 MERMAID AVE","city":"BROOKLYN","state":"NY ","zipcode":11224,"phone":"718-373-0300","cartodb_georef_status":true,"typefull":"General Practitioner"}},{"type":"Feature","geometry":{"type":"Point","coordinates":[-73.99189,40.5757]},"properties":{"cartodb_id":210,"type":"GP","name":"NY DENT IMPLT","address":"2426 MERMAID AVE","city":"BROOKLYN","state":"NY ","zipcode":11224,"phone":"718-265-6200","cartodb_georef_status":true,"typefull":"General Practitioner"}},{"type":"Feature","geometry":{"type":"Point","coordinates":[-80.16008,26.01041]},"properties":{"cartodb_id":381,"type":"GP","name":"J A MAHON","address":"2450 HOLLYWOOD BLD#400 ","city":"HOLLYWOOD","state":"FL ","zipcode":33020,"phone":"954-922-5011","cartodb_georef_status":true,"typefull":"General Practitioner"}},{"type":"Feature","geometry":{"type":"Point","coordinates":[-73.897827,40.861839]},"properties":{"cartodb_id":103,"type":"GP","name":"SUPERIOR-DENTAL","address":"2475 GRAND CONCOURSE","city":"BRONX","state":"NY ","zipcode":10468,"phone":"718-329-2929","cartodb_georef_status":true,"typefull":"General Practitioner"}},{"type":"Feature","geometry":{"type":"Point","coordinates":[-73.897827,40.861839]},"properties":{"cartodb_id":100,"type":"GP","name":"NEW YORK DENTAL","address":"2475 GRAND CONCOURSE","city":"BRONX","state":"NY ","zipcode":10468,"phone":"718-329-2929","cartodb_georef_status":true,"typefull":"General Practitioner"}},{"type":"Feature","geometry":{"type":"Point","coordinates":[-73.94127,40.82274]},"properties":{"cartodb_id":44,"type":"GP","name":"J SEABROOK","address":"247 WEST 145TH ST.","city":"NEW YORK","state":"NY ","zipcode":10039,"phone":"212-281-9300","cartodb_georef_status":true,"typefull":"General Practitioner"}},{"type":"Feature","geometry":{"type":"Point","coordinates":[-73.87221,40.68318]},"properties":{"cartodb_id":162,"type":"GP","name":"MISHRA","address":"248 CRESCENT STREET","city":"BROOKLYN","state":"NY ","zipcode":11208,"phone":"718-964-0660","cartodb_georef_status":true,"typefull":"General Practitioner"}},{"type":"Feature","geometry":{"type":"Point","coordinates":[-73.81056,40.81497]},"properties":{"cartodb_id":501,"type":"OR","name":"NATALIE BITTON","address":"24 MAPLE AVE STE #3","city":"ROCKVILLE CENT  ","state":"NY ","zipcode":11570,"phone":"516-766-0012","cartodb_georef_status":true,"typefull":"Orthodontist"}},{"type":"Feature","geometry":{"type":"Point","coordinates":[-73.14014,40.84093]},"properties":{"cartodb_id":508,"type":"OR","name":"STNY BROOK ORTH","address":"2500 NESCONSET HWY #4B ","city":"STONEY BROOK","state":"NY ","zipcode":11790,"phone":"631-675-2700","cartodb_georef_status":true,"typefull":"Orthodontist"}},{"type":"Feature","geometry":{"type":"Point","coordinates":[-73.930702,40.859121]},"properties":{"cartodb_id":319,"type":"GP","name":"HAQUE SAMINA","address":"250-12A HILLSIDE AVE","city":"BELLEROSE","state":"NY ","zipcode":11426,"phone":"718-343-0900","cartodb_georef_status":true,"typefull":"General Practitioner"}},{"type":"Feature","geometry":{"type":"Point","coordinates":[-73.98688,40.59797]},"properties":{"cartodb_id":180,"type":"GP","name":"BROOKLYN COMP","address":"2501 86TH STREET","city":"BROOKLYN","state":"NY ","zipcode":11214,"phone":"718-333-2500","cartodb_georef_status":true,"typefull":"General Practitioner"}},{"type":"Feature","geometry":{"type":"Point","coordinates":[-73.94612,40.62378]},"properties":{"cartodb_id":169,"type":"GP","name":"P BACALL","address":"2501 NOSTRAND AVE-S#1R ","city":"BROOKLYN","state":"NY ","zipcode":11210,"phone":"718-338-3202","cartodb_georef_status":true,"typefull":"General Practitioner"}},{"type":"Feature","geometry":{"type":"Point","coordinates":[-73.90335,40.86559]},"properties":{"cartodb_id":98,"type":"GP","name":"APTIN GHODS PC","address":"2505 UNIVERSITY AVENUE ","city":"BRONX","state":"NY ","zipcode":10468,"phone":"718-733-6600","cartodb_georef_status":true,"typefull":"General Practitioner"}},{"type":"Feature","geometry":{"type":"Point","coordinates":[-73.9629,40.76315]},"properties":{"cartodb_id":522,"type":"OS","name":"PERFECT DENTAL","address":"250 E 63RD ST STE1A","city":"NEW YORK","state":"NY ","zipcode":10065,"phone":"212-644-7009","cartodb_georef_status":true,"typefull":"Oral Surgeon"}},{"type":"Feature","geometry":{"type":"Point","coordinates":[-73.96511,40.76001]},"properties":{"cartodb_id":21,"type":"GP","name":"G MANTHAS","address":"250 EAST 58TH STREET","city":"NEW YORK","state":"NY ","zipcode":10022,"phone":"212-752-2212","cartodb_georef_status":true,"typefull":"General Practitioner"}},{"type":"Feature","geometry":{"type":"Point","coordinates":[-73.96511,40.76001]},"properties":{"cartodb_id":20,"type":"GP","name":"G MANTHAS","address":"250 EAST 58TH STREET","city":"NEW YORK","state":"NY ","zipcode":10022,"phone":"212-752-2212","cartodb_georef_status":true,"typefull":"General Practitioner"}},{"type":"Feature","geometry":{"type":"Point","coordinates":[-73.927777,40.763252]},"properties":{"cartodb_id":146,"type":"GP","name":"ASTORIA DENTAL","address":"25-37 BROADWAY","city":"ASTORIA","state":"NY ","zipcode":11108,"phone":"718-278-2141","cartodb_georef_status":true,"typefull":"General Practitioner"}},{"type":"Feature","geometry":null,"properties":{"cartodb_id":360,"type":"GP","name":"TOTAL DEN CARE","address":"1025 PORTION RD S# H","city":"FARMINGIVLLE","state":"NY ","zipcode":11738,"phone":"631-696-0100","cartodb_georef_status":false,"typefull":"General Practitioner"}},{"type":"Feature","geometry":null,"properties":{"cartodb_id":363,"type":"GP","name":"R.GIULIAN  PC","address":"25 CARMANS RD","city":"MASSAPEQUA","state":"NY ","zipcode":11758,"phone":"516-799-5577","cartodb_georef_status":false,"typefull":"General Practitioner"}},{"type":"Feature","geometry":null,"properties":{"cartodb_id":364,"type":"GP","name":"SUNRISE DENT AS","address":"25 CARMANS ROAD","city":"MASSAPEQUA","state":"NY ","zipcode":11758,"phone":"516-799-5577","cartodb_georef_status":false,"typefull":"General Practitioner"}},{"type":"Feature","geometry":null,"properties":{"cartodb_id":368,"type":"GP","name":"CONCERNED DENT","address":"966 PORTION ROAD","city":"RONKONKOMA","state":"NY ","zipcode":11779,"phone":"641-451-2245","cartodb_georef_status":false,"typefull":"General Practitioner"}},{"type":"Feature","geometry":null,"properties":{"cartodb_id":369,"type":"GP","name":"CONCERNED DENT","address":"335 TERRY ROAD","city":"HAUPPAUGE","state":"NY ","zipcode":11788,"phone":"631-724-0104","cartodb_georef_status":false,"typefull":"General Practitioner"}},{"type":"Feature","geometry":null,"properties":{"cartodb_id":378,"type":"GP","name":"K K LEE","address":"50 ROUTE 17K  STE 104  ","city":"NEWBURG","state":"NY ","zipcode":12550,"phone":"845-561-8880","cartodb_georef_status":false,"typefull":"General Practitioner"}},{"type":"Feature","geometry":null,"properties":{"cartodb_id":382,"type":"GP","name":"ARGUELLO DENT","address":"100 N STATE RD 7 SC300 ","city":"MARGATE","state":"FL ","zipcode":33063,"phone":"954-532-1274","cartodb_georef_status":false,"typefull":"General Practitioner"}},{"type":"Feature","geometry":null,"properties":{"cartodb_id":387,"type":"GP","name":"D R SIU-KEUNG KO  ","address":"8000 SW 117 AVE SUT202 ","city":"MIAMI","state":"FL ","zipcode":33183,"phone":"305-270-8883","cartodb_georef_status":false,"typefull":"General Practitioner"}},{"type":"Feature","geometry":null,"properties":{"cartodb_id":390,"type":"GP","name":"SUNRISE DENT CL","address":"5975 W SUNRISE BLVD","city":"STE 107 SUNRISE ","state":"FL ","zipcode":33313,"phone":"954-584-9500","cartodb_georef_status":false,"typefull":"General Practitioner"}},{"type":"Feature","geometry":null,"properties":{"cartodb_id":391,"type":"GP","name":"M F VIGNA  DDS  P ","address":"5975 W SUNRISE BLV 107 ","city":"SUNRISE","state":"FL ","zipcode":33313,"phone":"954-584-9500","cartodb_georef_status":false,"typefull":"General Practitioner"}},{"type":"Feature","geometry":null,"properties":{"cartodb_id":392,"type":"GP","name":"HARVEYMOSKOWITZ","address":"6209 W. COMM BLVD STE6 ","city":"TAMARAC","state":"FL ","zipcode":33319,"phone":"954-726-3200","cartodb_georef_status":false,"typefull":"General Practitioner"}},{"type":"Feature","geometry":null,"properties":{"cartodb_id":396,"type":"GP","name":"21ST CENTURY DE","address":"2541 W GOLF RD","city":"HOFFMAN ESTATES ","state":"IL ","zipcode":60169,"phone":"847-490-8708","cartodb_georef_status":false,"typefull":"General Practitioner"}},{"type":"Feature","geometry":null,"properties":{"cartodb_id":398,"type":"EN","name":"BERGENLIN ENDO","address":"5918 BERGENLIN AVE201B ","city":"WEST NEW YORK","state":"NJ ","zipcode":7093,"phone":"201-662-0662","cartodb_georef_status":false,"typefull":"Endodontist"}},{"type":"Feature","geometry":null,"properties":{"cartodb_id":406,"type":"EN","name":"I M BRAND","address":"425 BROAD HOLLOW ROAD  ","city":"MELVILLE","state":"NY ","zipcode":11747,"phone":"631-293-6500","cartodb_georef_status":false,"typefull":"Endodontist"}},{"type":"Feature","geometry":null,"properties":{"cartodb_id":423,"type":"MS","name":"YONKERS DEN SUR","address":"12 WARBURTON AVE.","city":"YONKERS","state":"NY ","zipcode":10701,"phone":"914-969-2727","cartodb_georef_status":false,"typefull":"Multiple Specialist"}},{"type":"Feature","geometry":null,"properties":{"cartodb_id":424,"type":"MS","name":"GALLERIA MALL D","address":"1 N GALLERIA DR #141","city":"MIDDLETOWN","state":"NY ","zipcode":10941,"phone":"845-692-9212","cartodb_georef_status":false,"typefull":"Multiple Specialist"}},{"type":"Feature","geometry":{"type":"Point","coordinates":[-74.011096,40.702172]},"properties":{"cartodb_id":51,"type":"GP","name":"SANJAY KAPOOR","address":"253 BROAD STREET","city":"STATEN ISLAND","state":"NY ","zipcode":10304,"phone":"718-720-0066","cartodb_georef_status":true,"typefull":"General Practitioner"}},{"type":"Feature","geometry":{"type":"Point","coordinates":[-73.982,40.72296]},"properties":{"cartodb_id":10,"type":"GP","name":"R LUCENTE DMD","address":"254 E.4TH STREET","city":"NEW YORK","state":"NY ","zipcode":10009,"phone":"212-777-1969","cartodb_georef_status":true,"typefull":"General Practitioner"}},{"type":"Feature","geometry":{"type":"Point","coordinates":[-73.91292,40.76601]},"properties":{"cartodb_id":137,"type":"GP","name":"NEW TODAY'S DEN","address":"25-73 STEINWAY ST 2FL  ","city":"ASTORIA","state":"NY ","zipcode":11103,"phone":"718-392-1888","cartodb_georef_status":true,"typefull":"General Practitioner"}},{"type":"Feature","geometry":{"type":"Point","coordinates":[-73.94331,40.80703]},"properties":{"cartodb_id":25,"type":"GP","name":"D R SILBER- ELLIO ","address":"25 W 125 STREET","city":"NEW YORK","state":"NY ","zipcode":10027,"phone":"212-860-0130","cartodb_georef_status":true,"typefull":"General Practitioner"}},{"type":"Feature","geometry":{"type":"Point","coordinates":[-73.92523,40.81196]},"properties":{"cartodb_id":71,"type":"GP","name":"BRONX DENTAL PC","address":"2604 3RD AVE","city":"BRONX","state":"NY ","zipcode":10454,"phone":"718-292-3800","cartodb_georef_status":true,"typefull":"General Practitioner"}},{"type":"Feature","geometry":{"type":"Point","coordinates":[-73.93386,40.846925]},"properties":{"cartodb_id":460,"type":"OR","name":"WASHINGTON ORTH","address":"260 AUDUBON AVE","city":"NEW YORK","state":"NY ","zipcode":10033,"phone":"212-923-0222","cartodb_georef_status":true,"typefull":"Orthodontist"}},{"type":"Feature","geometry":{"type":"Point","coordinates":[-73.70938,40.74869]},"properties":{"cartodb_id":133,"type":"GP","name":"ALL BRIGHT DENT","address":"263-09 UNION TPKE 1FL  ","city":"FLORAL PARK","state":"NY ","zipcode":11004,"phone":"718-343-3300","cartodb_georef_status":true,"typefull":"General Practitioner"}},{"type":"Feature","geometry":{"type":"Point","coordinates":[-122.241804,37.802486]},"properties":{"cartodb_id":388,"type":"GP","name":"S POLASKY","address":"2655 E. OAKLAND PK BLV ","city":"FT. LAUDERDALE  ","state":"FL ","zipcode":33306,"phone":"954-292-6628","cartodb_georef_status":true,"typefull":"General Practitioner"}},{"type":"Feature","geometry":{"type":"Point","coordinates":[-74.16608,40.58125]},"properties":{"cartodb_id":58,"type":"GP","name":"STATEN ISLAND M","address":"2655 RICHMND AVE #2220 ","city":"STATEN ISLAND","state":"NY ","zipcode":10314,"phone":"718-982-5500","cartodb_georef_status":true,"typefull":"General Practitioner"}},{"type":"Feature","geometry":{"type":"Point","coordinates":[-73.894075,40.86696]},"properties":{"cartodb_id":101,"type":"GP","name":"RIGHT FAMILY DE","address":"2665 GRAND CONCOURSE","city":"BRONX","state":"NY ","zipcode":10468,"phone":"718-365-8660","cartodb_georef_status":true,"typefull":"General Practitioner"}},{"type":"Feature","geometry":{"type":"Point","coordinates":[-73.9605,40.59177]},"properties":{"cartodb_id":207,"type":"GP","name":"SMILE AGAIN DEN","address":"2667 CONEY ISLAND AVE  ","city":"BROOKLYN","state":"NY ","zipcode":11223,"phone":"718-934-0070","cartodb_georef_status":true,"typefull":"General Practitioner"}},{"type":"Feature","geometry":{"type":"Point","coordinates":[-74.11381,40.56678]},"properties":{"cartodb_id":54,"type":"GP","name":"ADV HYLAN DENT","address":"2691 HYLAN BLVD","city":"STATEN ISLAND","state":"NY ","zipcode":10306,"phone":"718-987-3365","cartodb_georef_status":true,"typefull":"General Practitioner"}},{"type":"Feature","geometry":{"type":"Point","coordinates":[-73.91315,40.77753]},"properties":{"cartodb_id":140,"type":"GP","name":"CAIRO DENTAL PC","address":"27-02 DITMARS BLVD","city":"ASTORIA","state":"NY ","zipcode":11105,"phone":"718-728-7200","cartodb_georef_status":true,"typefull":"General Practitioner"}},{"type":"Feature","geometry":{"type":"Point","coordinates":[-73.9881,40.66983]},"properties":{"cartodb_id":185,"type":"GP","name":"MODERN DENTAL","address":"272 9TH STREET","city":"BROOKLYN","state":"NY ","zipcode":11215,"phone":"718-832-3700","cartodb_georef_status":true,"typefull":"General Practitioner"}},{"type":"Feature","geometry":{"type":"Point","coordinates":[-73.79432,40.77128]},"properties":{"cartodb_id":545,"type":"OS","name":"COLACICCO&TULMA","address":"27-30 FRANCIS LEWIS BL ","city":"FLUSHING","state":"NY ","zipcode":11358,"phone":"718-762-2340","cartodb_georef_status":true,"typefull":"Oral Surgeon"}},{"type":"Feature","geometry":{"type":"Point","coordinates":[-73.920983,40.814145]},"properties":{"cartodb_id":76,"type":"GP","name":"SCHILOWITZ","address":"2740 3RD AVE","city":"BRONX","state":"NY ","zipcode":10455,"phone":"718-618-0162","cartodb_georef_status":true,"typefull":"General Practitioner"}},{"type":"Feature","geometry":{"type":"Point","coordinates":[-73.98054,40.75132]},"properties":{"cartodb_id":16,"type":"GP","name":"NEW YORK DENTAL","address":"274 MADISON AVE #202","city":"NEW YORK","state":"NY ","zipcode":10016,"phone":"212-889-8870","cartodb_georef_status":true,"typefull":"General Practitioner"}},{"type":"Feature","geometry":{"type":"Point","coordinates":[-73.97253,40.59042]},"properties":{"cartodb_id":206,"type":"GP","name":"N ORLOVA","address":"275 AVE X","city":"BROOKLYN","state":"NY ","zipcode":11223,"phone":"718-645-7000","cartodb_georef_status":true,"typefull":"General Practitioner"}},{"type":"Feature","geometry":{"type":"Point","coordinates":[-73.73569,40.94889]},"properties":{"cartodb_id":472,"type":"OR","name":"J KIM","address":"280 MAMARONECK AVE","city":"WHITE PLAINS","state":"NY ","zipcode":10605,"phone":"914-946-1213","cartodb_georef_status":true,"typefull":"Orthodontist"}},{"type":"Feature","geometry":{"type":"Point","coordinates":[-73.94998,40.5929]},"properties":{"cartodb_id":224,"type":"GP","name":"AVENUE X DENTAL","address":"2811 OCEAN AVE #2","city":"BROOKLYN","state":"NY ","zipcode":11229,"phone":"718-648-8026","cartodb_georef_status":true,"typefull":"General Practitioner"}},{"type":"Feature","geometry":{"type":"Point","coordinates":[-73.95012,40.64291]},"properties":{"cartodb_id":217,"type":"GP","name":"FREDERIC COHEN","address":"2814 CLARENDON RD","city":"BROOKLYN","state":"NY ","zipcode":11226,"phone":"718-469-0014","cartodb_georef_status":true,"typefull":"General Practitioner"}},{"type":"Feature","geometry":{"type":"Point","coordinates":[-73.918324,40.815823]},"properties":{"cartodb_id":469,"type":"OR","name":"SOUTH BRNX ORTH","address":"2825 3RD AVE STE 406","city":"BRONX","state":"NY ","zipcode":10455,"phone":"718-292-4700","cartodb_georef_status":true,"typefull":"Orthodontist"}},{"type":"Feature","geometry":{"type":"Point","coordinates":[-73.94977,40.65068]},"properties":{"cartodb_id":543,"type":"OS","name":"MOSES DATSON","address":"2848 CHURCH AVE","city":"BROOKLYN","state":"NY ","zipcode":11226,"phone":"718-284-5500","cartodb_georef_status":true,"typefull":"Oral Surgeon"}},{"type":"Feature","geometry":null,"properties":{"cartodb_id":438,"type":"MS","name":"MIAMI INTERNAT","address":"1455 N.W. 107TH AVE","city":"DORAL","state":"FL ","zipcode":33172,"phone":"305-597-8787","cartodb_georef_status":false,"typefull":"Multiple Specialist"}},{"type":"Feature","geometry":null,"properties":{"cartodb_id":439,"type":"MS","name":"SAWGRASS MILLS","address":"12801 W SUNRISE BLVD","city":"SUNRISE-STEF222 ","state":"FL ","zipcode":33323,"phone":"954-846-7172","cartodb_georef_status":false,"typefull":"Multiple Specialist"}},{"type":"Feature","geometry":null,"properties":{"cartodb_id":443,"type":"OR","name":"A FRANKEL","address":"417 36TH STREET","city":"UNION CITY","state":"NJ ","zipcode":7087,"phone":"201-223-2700","cartodb_georef_status":false,"typefull":"Orthodontist"}},{"type":"Feature","geometry":null,"properties":{"cartodb_id":444,"type":"OR","name":"BERGENLINE ORTH","address":"5918 BERGENLINE AVE","city":"#2019 NEW YORK  ","state":"NY ","zipcode":7093,"phone":"201-622-0662","cartodb_georef_status":false,"typefull":"Orthodontist"}},{"type":"Feature","geometry":null,"properties":{"cartodb_id":445,"type":"OR","name":"BERGENLINE ORTH","address":"5918 BERGLNE AVE-201B  ","city":"WEST NEW YORK","state":"NJ ","zipcode":7093,"phone":"201-662-0662","cartodb_georef_status":false,"typefull":"Orthodontist"}},{"type":"Feature","geometry":null,"properties":{"cartodb_id":452,"type":"OR","name":"DIAMOND BRACES","address":"66 E MCFARLAN ST  3FL  ","city":"DOVER","state":"NJ ","zipcode":7801,"phone":"973-366-2244","cartodb_georef_status":false,"typefull":"Orthodontist"}},{"type":"Feature","geometry":null,"properties":{"cartodb_id":453,"type":"OR","name":"DIAMOND BRACES","address":"66 E MCFARLAN ST 3RDFL ","city":"DOVER","state":"NJ ","zipcode":7801,"phone":"972-366-2244","cartodb_georef_status":false,"typefull":"Orthodontist"}},{"type":"Feature","geometry":null,"properties":{"cartodb_id":454,"type":"OR","name":"DIAMOND BRACES","address":"34-36 PROGRESS ST #A4  ","city":"EDISIN","state":"NJ ","zipcode":8820,"phone":"908-222-8228","cartodb_georef_status":false,"typefull":"Orthodontist"}},{"type":"Feature","geometry":null,"properties":{"cartodb_id":455,"type":"OR","name":"DIAMOND BRACES","address":"34-36 PROGRESS ST #4A  ","city":"EDISON","state":"NJ ","zipcode":8820,"phone":"908-222-8228","cartodb_georef_status":false,"typefull":"Orthodontist"}},{"type":"Feature","geometry":null,"properties":{"cartodb_id":456,"type":"OR","name":"M CHOI","address":"1130 US HIGHWAY 202","city":"RARITAN","state":"NJ ","zipcode":8869,"phone":"732-671-5700","cartodb_georef_status":false,"typefull":"Orthodontist"}},{"type":"Feature","geometry":null,"properties":{"cartodb_id":474,"type":"OR","name":"SPRING VAL ORTH","address":"17 PERLMAN DRIVE S#B","city":"SPRING VALLEY","state":"NY ","zipcode":10977,"phone":"845-352-2100","cartodb_georef_status":false,"typefull":"Orthodontist"}},{"type":"Feature","geometry":null,"properties":{"cartodb_id":475,"type":"OR","name":"SPRING VALLEY","address":"17 PERLMAN DRIVE","city":"SPRING VALLEY","state":"NY ","zipcode":10977,"phone":"845-352-2100","cartodb_georef_status":false,"typefull":"Orthodontist"}},{"type":"Feature","geometry":null,"properties":{"cartodb_id":486,"type":"OR","name":"CHURCH AVE ORTH","address":"2848 CHURCH AVE 2ND FL ","city":"BROOKLYN","state":"NY ","zipcode":11226,"phone":"718-282-8222","cartodb_georef_status":false,"typefull":"Orthodontist"}},{"type":"Feature","geometry":null,"properties":{"cartodb_id":487,"type":"OR","name":"CHURCH AVE ORTH","address":"2848 CHURCH AVE-2ND FL ","city":"BROOKLYN","state":"NY ","zipcode":11226,"phone":"718-282-8222","cartodb_georef_status":false,"typefull":"Orthodontist"}},{"type":"Feature","geometry":{"type":"Point","coordinates":[-97.23887,38.48586]},"properties":{"cartodb_id":442,"type":"OR","name":"BRACES & SMILES","address":"285 DURHAM AVE STE 2B  ","city":"S PLAINFIELD","state":"NJ ","zipcode":7080,"phone":"908-731-7878","cartodb_georef_status":true,"typefull":"Orthodontist"}},{"type":"Feature","geometry":{"type":"Point","coordinates":[-73.553597,40.676889]},"properties":{"cartodb_id":499,"type":"OR","name":"S R KHAN  DDS PC  ","address":"28 MERRICK AVE--#1","city":"MERRICK","state":"NY ","zipcode":11566,"phone":"516-378-1033","cartodb_georef_status":true,"typefull":"Orthodontist"}},{"type":"Feature","geometry":{"type":"Point","coordinates":[-73.93945,40.59192]},"properties":{"cartodb_id":239,"type":"GP","name":"D JAKUBOWITZ","address":"2939 AVENUE Y","city":"BROOKLYN","state":"NY ","zipcode":11235,"phone":"718-648-5500","cartodb_georef_status":true,"typefull":"General Practitioner"}},{"type":"Feature","geometry":{"type":"Point","coordinates":[-73.94924,40.58911]},"properties":{"cartodb_id":241,"type":"GP","name":"VISTA DENTAL","address":"2951 OCEAN AVE STE BB  ","city":"BROOKLYN","state":"NY ","zipcode":11235,"phone":"718-332-2100","cartodb_georef_status":true,"typefull":"General Practitioner"}},{"type":"Feature","geometry":{"type":"Point","coordinates":[-73.9397,40.60082]},"properties":{"cartodb_id":225,"type":"GP","name":"BRIGHT SMILE DE","address":"2981 AVENUE U","city":"BROOKLYN","state":"NY ","zipcode":11229,"phone":"718-934-3630","cartodb_georef_status":true,"typefull":"General Practitioner"}},{"type":"Feature","geometry":{"type":"Point","coordinates":[-73.99292,40.73985]},"properties":{"cartodb_id":11,"type":"GP","name":"UNION SQUAREDEN","address":"29 WEST 19TH STREET","city":"NEW YORK","state":"NY ","zipcode":10011,"phone":"212-675-7877","cartodb_georef_status":true,"typefull":"General Practitioner"}},{"type":"Feature","geometry":{"type":"Point","coordinates":[-73.99241,40.71452]},"properties":{"cartodb_id":3,"type":"GP","name":"LIU PAMELA","address":"2 ALLEN STREET STE #6G ","city":"NEW YORK","state":"NY ","zipcode":10002,"phone":"212-226-3250","cartodb_georef_status":true,"typefull":"General Practitioner"}},{"type":"Feature","geometry":{"type":"Point","coordinates":[-73.99241,40.71452]},"properties":{"cartodb_id":1,"type":"GP","name":"BLOUNT MARLA","address":"2 ALLEN STREET STE 6H  ","city":"NEW YORK","state":"NY ","zipcode":10002,"phone":"212-226-8123","cartodb_georef_status":true,"typefull":"General Practitioner"}},{"type":"Feature","geometry":{"type":"Point","coordinates":[-85.94227,40.12358]},"properties":{"cartodb_id":127,"type":"GP","name":"A J BAMAN","address":"2 STRAWTOWN ROAD","city":"WEST NYACK","state":"NY ","zipcode":10994,"phone":"845-348-8725","cartodb_georef_status":true,"typefull":"General Practitioner"}},{"type":"Feature","geometry":{"type":"Point","coordinates":[-73.98014,40.75558]},"properties":{"cartodb_id":40,"type":"GP","name":"MANHATTAN DENT","address":"2 WEST 45TH ST #1008","city":"NEW YORK","state":"NY ","zipcode":10036,"phone":"212-944-2836","cartodb_georef_status":true,"typefull":"General Practitioner"}},{"type":"Feature","geometry":{"type":"Point","coordinates":[-73.99658,40.5752]},"properties":{"cartodb_id":211,"type":"GP","name":"NYC FAMILY DENT","address":"3002 MERMAID AVE","city":"BROOKLYN","state":"NY ","zipcode":11224,"phone":"718-373-0300","cartodb_georef_status":true,"typefull":"General Practitioner"}},{"type":"Feature","geometry":{"type":"Point","coordinates":[-73.99658,40.5752]},"properties":{"cartodb_id":212,"type":"GP","name":"NYC FAMILY DENT","address":"3002 MERMAID AVE","city":"BROOKLYN","state":"NY ","zipcode":11224,"phone":"718-975-4475","cartodb_georef_status":true,"typefull":"General Practitioner"}},{"type":"Feature","geometry":{"type":"Point","coordinates":[-73.94635,40.62699]},"properties":{"cartodb_id":172,"type":"GP","name":"FLATBUSH DENTAL","address":"3013 AVE J","city":"BROOKLYN","state":"NY ","zipcode":11210,"phone":"718-252-0056","cartodb_georef_status":true,"typefull":"General Practitioner"}},{"type":"Feature","geometry":null,"properties":{"cartodb_id":359,"type":"GP","name":"KANE DENT FMLY","address":"1111 BROADHOLLOW RD104 ","city":"FARMINGDALE","state":"NY ","zipcode":11735,"phone":"631-756-5656","cartodb_georef_status":false,"typefull":"General Practitioner"}},{"type":"Feature","geometry":{"type":"Point","coordinates":[-73.98251,40.68824]},"properties":{"cartodb_id":190,"type":"GP","name":"FAMILY UNION DE","address":"304 LIVINGSTON ST","city":"BROOKLYN","state":"NY ","zipcode":11217,"phone":"718-638-3900","cartodb_georef_status":true,"typefull":"General Practitioner"}},{"type":"Feature","geometry":{"type":"Point","coordinates":[-73.91311,40.82035]},"properties":{"cartodb_id":61,"type":"GP","name":"DORADO MED DENT","address":"3055 THIRD AVE-SUITE B ","city":"BRONX","state":"NY ","zipcode":10451,"phone":"718-665-1000","cartodb_georef_status":true,"typefull":"General Practitioner"}},{"type":"Feature","geometry":{"type":"Point","coordinates":[-73.91257,40.82059]},"properties":{"cartodb_id":525,"type":"OS","name":"MANHATTAN ORAL","address":"3056 THIRD AVENUE","city":"BRONX","state":"NY ","zipcode":10451,"phone":"347-590-9251","cartodb_georef_status":true,"typefull":"Oral Surgeon"}},{"type":"Feature","geometry":{"type":"Point","coordinates":[-73.91644,40.76247]},"properties":{"cartodb_id":136,"type":"GP","name":"ASTORIA DENTAL","address":"30-60 STEINWAY ST.","city":"ASTORIA","state":"NY ","zipcode":11103,"phone":"718-278-2141","cartodb_georef_status":true,"typefull":"General Practitioner"}},{"type":"Feature","geometry":{"type":"Point","coordinates":[-73.88906,40.7592]},"properties":{"cartodb_id":492,"type":"OR","name":"ORTHO @ JACKSON","address":"30-62 79TH ST-2ND FL","city":"JACKSON HEIGHTS ","state":"NY ","zipcode":11370,"phone":"718-426-9400","cartodb_georef_status":true,"typefull":"Orthodontist"}},{"type":"Feature","geometry":{"type":"Point","coordinates":[-73.88906,40.7592]},"properties":{"cartodb_id":493,"type":"OR","name":"J SCHECTER","address":"30-62 79TH STREET","city":"JACKSON HEIGHTS ","state":"NY ","zipcode":11370,"phone":"718-426-9400","cartodb_georef_status":true,"typefull":"Orthodontist"}},{"type":"Feature","geometry":{"type":"Point","coordinates":[-73.91647,40.76126]},"properties":{"cartodb_id":478,"type":"OR","name":"QUEENS ORTHODO","address":"3097 STEINWAY ST 2NDFL ","city":"ASTORIA","state":"NY ","zipcode":11103,"phone":"718-545-5100","cartodb_georef_status":true,"typefull":"Orthodontist"}},{"type":"Feature","geometry":{"type":"Point","coordinates":[-73.91647,40.76126]},"properties":{"cartodb_id":479,"type":"OR","name":"QUEENS ORTHODON","address":"3097 STEINWAY ST 2NDFL ","city":"ASTORIA","state":"NY ","zipcode":11103,"phone":"718-545-5100","cartodb_georef_status":true,"typefull":"Orthodontist"}},{"type":"Feature","geometry":{"type":"Point","coordinates":[-73.96359,40.68874]},"properties":{"cartodb_id":249,"type":"GP","name":"SMITH & EDWARDS","address":"309 LAFAYETTE AVENUE","city":"BROOKLYN","state":"NY ","zipcode":11238,"phone":"718-638-3232","cartodb_georef_status":true,"typefull":"General Practitioner"}},{"type":"Feature","geometry":{"type":"Point","coordinates":[-73.9752,40.76501]},"properties":{"cartodb_id":515,"type":"OS","name":"ETUFUGH NGOZI","address":"30 CENTRAL PARK S #4D  ","city":"NEW YORK","state":"NY ","zipcode":10019,"phone":"212-371-2930","cartodb_georef_status":true,"typefull":"Oral Surgeon"}},{"type":"Feature","geometry":{"type":"Point","coordinates":[-73.9752,40.76501]},"properties":{"cartodb_id":514,"type":"OS","name":"CENTRAL PK SO D","address":"30 CENTRAL PK S #3A","city":"NEW YORK","state":"NY ","zipcode":10019,"phone":"212-759-2993","cartodb_georef_status":true,"typefull":"Oral Surgeon"}},{"type":"Feature","geometry":{"type":"Point","coordinates":[-73.940604,40.65521]},"properties":{"cartodb_id":17,"type":"GP","name":"P WINSTON","address":"30 E 40TH STREET #100  ","city":"NEW YORK","state":"NY ","zipcode":10016,"phone":"212-889-0246","cartodb_georef_status":true,"typefull":"General Practitioner"}},{"type":"Feature","geometry":{"type":"Point","coordinates":[-73.97965,40.7512]},"properties":{"cartodb_id":410,"type":"MS","name":"CONCERNED DENT","address":"30 E 40TH ST STE 207","city":"NEW YORK","state":"NY ","zipcode":10016,"phone":"212-696-4979","cartodb_georef_status":true,"typefull":"Multiple Specialist"}},{"type":"Feature","geometry":null,"properties":{"cartodb_id":503,"type":"OR","name":"J SHURE","address":"122-10 ROCKWY BCH BLVD ","city":"BELLE HABOR","state":"NY ","zipcode":11694,"phone":"718-634-9700","cartodb_georef_status":false,"typefull":"Orthodontist"}},{"type":"Feature","geometry":null,"properties":{"cartodb_id":510,"type":"OR","name":"SHELDON RINTEL","address":"1149 OLD COUNTRY RD","city":"RIVERHEAD","state":"NY ","zipcode":11901,"phone":"631-369-1500","cartodb_georef_status":false,"typefull":"Orthodontist"}},{"type":"Feature","geometry":null,"properties":{"cartodb_id":558,"type":"OS","name":"COLACICCO&TULMA","address":"425 BROAD HOLLOW ROAD  ","city":"MELVILLE- S#102 ","state":"NY ","zipcode":11747,"phone":"631-752-1033","cartodb_georef_status":false,"typefull":"Oral Surgeon"}},{"type":"Feature","geometry":null,"properties":{"cartodb_id":559,"type":"OS","name":"SLAVA SHAPIRO","address":"167 FROEHLICH FARM BLV ","city":"WOODBURY","state":"NY ","zipcode":11797,"phone":"516-677-9777","cartodb_georef_status":false,"typefull":"Oral Surgeon"}},{"type":"Feature","geometry":null,"properties":{"cartodb_id":564,"type":"PE","name":"R F GERHARD","address":"225 HIGHWAY 35-STE 206 ","city":"RED BANK","state":"NJ ","zipcode":7701,"phone":"732-530-7071","cartodb_georef_status":false,"typefull":"Periodontist"}},{"type":"Feature","geometry":{"type":"Point","coordinates":[-73.940604,40.65521]},"properties":{"cartodb_id":513,"type":"OS","name":"R BIONDO","address":"30 EAST 40TH ST STE206 ","city":"NEW YORK","state":"NY ","zipcode":10016,"phone":"212-889-4700","cartodb_georef_status":true,"typefull":"Oral Surgeon"}},{"type":"Feature","geometry":{"type":"Point","coordinates":[-73.97017,40.76369]},"properties":{"cartodb_id":516,"type":"OS","name":"M MOSES","address":"30 EAST 60 ST STE 608  ","city":"NEW YORK","state":"NY ","zipcode":10022,"phone":"212-421-1839","cartodb_georef_status":true,"typefull":"Oral Surgeon"}},{"type":"Feature","geometry":{"type":"Point","coordinates":[-73.907936,40.777759]},"properties":{"cartodb_id":141,"type":"GP","name":"HENRY  CRAIG T","address":"31-01 21ST AVE","city":"ASTORIA","state":"NY ","zipcode":11105,"phone":"718-278-5300","cartodb_georef_status":true,"typefull":"General Practitioner"}},{"type":"Feature","geometry":{"type":"Point","coordinates":[-73.90627,40.87994]},"properties":{"cartodb_id":94,"type":"GP","name":"BORGELLA","address":"3102 KINGSBRIDGE AVE1E ","city":"BRONX","state":"NY ","zipcode":10463,"phone":"718-543-9786","cartodb_georef_status":true,"typefull":"General Practitioner"}},{"type":"Feature","geometry":{"type":"Point","coordinates":[-73.920275,40.767172]},"properties":{"cartodb_id":477,"type":"OR","name":"BRACETOWN ORTHO","address":"31-19 NEWTOWN AVE","city":"ASTORIA","state":"NY ","zipcode":11102,"phone":"718-721-5100","cartodb_georef_status":true,"typefull":"Orthodontist"}},{"type":"Feature","geometry":{"type":"Point","coordinates":[-73.924,40.76161]},"properties":{"cartodb_id":143,"type":"GP","name":"G MANTHAS","address":"32-11 BROADWAY","city":"ASTORIA","state":"NY ","zipcode":11106,"phone":"718-777-2802","cartodb_georef_status":true,"typefull":"General Practitioner"}},{"type":"Feature","geometry":{"type":"Point","coordinates":[-73.94542,40.63193]},"properties":{"cartodb_id":170,"type":"GP","name":"F COHEN","address":"3215 AVE H SUITE 1C","city":"BROOKLYN","state":"NY ","zipcode":11210,"phone":"718-469-0014","cartodb_georef_status":true,"typefull":"General Practitioner"}},{"type":"Feature","geometry":{"type":"Point","coordinates":[-74.0304,40.6231]},"properties":{"cartodb_id":163,"type":"GP","name":"S CHAHINE","address":"322 86TH STREET","city":"BROOKLYN","state":"NY ","zipcode":11209,"phone":"718-630-1030","cartodb_georef_status":true,"typefull":"General Practitioner"}},{"type":"Feature","geometry":{"type":"Point","coordinates":[-73.90744,40.8244]},"properties":{"cartodb_id":79,"type":"GP","name":"V SHAH","address":"3250 THIRD AVE","city":"BRONX","state":"NY ","zipcode":10456,"phone":"718-842-6960","cartodb_georef_status":true,"typefull":"General Practitioner"}},{"type":"Feature","geometry":{"type":"Point","coordinates":[-111.61941,32.78094]},"properties":{"cartodb_id":397,"type":"GP","name":"PRECIOUS DENTAL","address":"3260 N. TOLTEC RD","city":"ELOY","state":"AZ ","zipcode":85131,"phone":"520-466-3920","cartodb_georef_status":true,"typefull":"General Practitioner"}},{"type":"Feature","geometry":{"type":"Point","coordinates":[-73.894312,40.862452]},"properties":{"cartodb_id":86,"type":"GP","name":"EXECUTIVE ASSOC","address":"327 E FORDHAM RD 2ND F ","city":"BRONX","state":"NY ","zipcode":10458,"phone":"718-933-8400","cartodb_georef_status":true,"typefull":"General Practitioner"}},{"type":"Feature","geometry":{"type":"Point","coordinates":[-73.94056,40.61484]},"properties":{"cartodb_id":237,"type":"GP","name":"S D STACHEL","address":"3302 AVENUE P","city":"BROOKLYN","state":"NY ","zipcode":11234,"phone":"718-998-6358","cartodb_georef_status":true,"typefull":"General Practitioner"}},{"type":"Feature","geometry":{"type":"Point","coordinates":[-73.99157,40.7575]},"properties":{"cartodb_id":42,"type":"GP","name":"42ND ST DENTAL","address":"330 WEST 42ND STREET","city":"NEW YORK","state":"NY ","zipcode":10036,"phone":"212-631-0222","cartodb_georef_status":true,"typefull":"General Practitioner"}},{"type":"Feature","geometry":{"type":"Point","coordinates":[-73.88478,40.75404]},"properties":{"cartodb_id":548,"type":"OS","name":"NYC ORAL SURGER","address":"33-53 82ND ST. #A01","city":"JACKSON HTS","state":"NY ","zipcode":11372,"phone":"718-899-7811","cartodb_georef_status":true,"typefull":"Oral Surgeon"}},{"type":"Feature","geometry":{"type":"Point","coordinates":[-73.85146,40.87474]},"properties":{"cartodb_id":105,"type":"GP","name":"S SANDLER","address":"3366 BOSTON ROAD","city":"BRONX","state":"NY ","zipcode":10469,"phone":"718-547-5280","cartodb_georef_status":true,"typefull":"General Practitioner"}},{"type":"Feature","geometry":{"type":"Point","coordinates":[-73.83706,40.87878]},"properties":{"cartodb_id":533,"type":"OS","name":"PREMIER ORAL SU","address":"3370 BAYCHESTER AVE-#8 ","city":"BRONX","state":"NY ","zipcode":10475,"phone":"718-671-2823","cartodb_georef_status":true,"typefull":"Oral Surgeon"}},{"type":"Feature","geometry":{"type":"Point","coordinates":[-74.000491,40.577344]},"properties":{"cartodb_id":208,"type":"GP","name":"HEALTHY DENTIST","address":"3375 NEPTUNE AVE","city":"BROOKLYN","state":"NY ","zipcode":11224,"phone":"718-265-6262","cartodb_georef_status":true,"typefull":"General Practitioner"}},{"type":"Feature","geometry":{"type":"Point","coordinates":[-73.78427,40.59364]},"properties":{"cartodb_id":355,"type":"GP","name":"H KIRSCHNER","address":"338 BEACH 54TH STREET  ","city":"FAR ROCKAWAY","state":"NY ","zipcode":11692,"phone":"718-634-2123","cartodb_georef_status":true,"typefull":"General Practitioner"}},{"type":"Feature","geometry":{"type":"Point","coordinates":[-74.073967,40.634255]},"properties":{"cartodb_id":557,"type":"OS","name":"ETUFUGH NGOZI","address":"33 FRONT STREET #307","city":"HEMPSTEAD","state":"NY ","zipcode":11550,"phone":"516-292-6700","cartodb_georef_status":true,"typefull":"Oral Surgeon"}},{"type":"Feature","geometry":{"type":"Point","coordinates":[-73.84848,40.87651]},"properties":{"cartodb_id":530,"type":"OS","name":"MANHATTAN ORAL","address":"3457 BOSTON ROAD","city":"BRONX","state":"NY ","zipcode":10469,"phone":"347-590-9916","cartodb_georef_status":true,"typefull":"Oral Surgeon"}},{"type":"Feature","geometry":{"type":"Point","coordinates":[-73.98388,40.67187]},"properties":{"cartodb_id":15,"type":"GP","name":"C LLAGAS","address":"347 FIFTH AVE #1406","city":"NEW YORK","state":"NY ","zipcode":10016,"phone":"212-689-5244","cartodb_georef_status":true,"typefull":"General Practitioner"}},{"type":"Feature","geometry":{"type":"Point","coordinates":[-73.9884,40.69174]},"properties":{"cartodb_id":148,"type":"GP","name":"METROTECH SMILE","address":"350 FULTON  ST 2ND FL  ","city":"BROOKLYN","state":"NY ","zipcode":11201,"phone":"929-272-4034","cartodb_georef_status":true,"typefull":"General Practitioner"}},{"type":"Feature","geometry":{"type":"Point","coordinates":[-73.9884,40.69174]},"properties":{"cartodb_id":149,"type":"GP","name":"N ORLOVA","address":"350 FULTON STREET","city":"BROOKLYN","state":"NY ","zipcode":11201,"phone":"718-645-7000","cartodb_georef_status":true,"typefull":"General Practitioner"}},{"type":"Feature","geometry":{"type":"Point","coordinates":[-73.91921,40.81663]},"properties":{"cartodb_id":467,"type":"OR","name":"K B COOPERMAN DMD ","address":"355 E 149TH ST 2ND FL  ","city":"BRONX","state":"NY ","zipcode":10455,"phone":"718-993-5454","cartodb_georef_status":true,"typefull":"Orthodontist"}},{"type":"Feature","geometry":{"type":"Point","coordinates":[-74.16728,40.55033]},"properties":{"cartodb_id":57,"type":"GP","name":"A KAYE","address":"3595 RICHMOND AVE","city":"STATEN ISLAND","state":"NY ","zipcode":10312,"phone":"718-356-1450","cartodb_georef_status":true,"typefull":"General Practitioner"}},{"type":"Feature","geometry":{"type":"Point","coordinates":[-74.0598,40.73217]},"properties":{"cartodb_id":447,"type":"OR","name":"ORTHOCLUB PC","address":"35 JOURNAL SQ 6TH FL","city":"JERSEY CITY","state":"NJ ","zipcode":7306,"phone":"201-420-7116","cartodb_georef_status":true,"typefull":"Orthodontist"}},{"type":"Feature","geometry":{"type":"Point","coordinates":[-74.0598,40.73217]},"properties":{"cartodb_id":446,"type":"OR","name":"JOURNAL SQUARE","address":"35 JOURNAL SQ S#601","city":"JERSEY CITY","state":"NJ ","zipcode":7306,"phone":"201-420-7116","cartodb_georef_status":true,"typefull":"Orthodontist"}},{"type":"Feature","geometry":{"type":"Point","coordinates":[-73.95304,40.81078]},"properties":{"cartodb_id":459,"type":"OR","name":"125TH ST. ORTHO","address":"360 W 125TH ST STE #8  ","city":"NEW YORK","state":"NY ","zipcode":10027,"phone":"212-222-3210","cartodb_georef_status":true,"typefull":"Orthodontist"}},{"type":"Feature","geometry":{"type":"Point","coordinates":[-73.95666,40.67077]},"properties":{"cartodb_id":188,"type":"GP","name":"G KALYANARAMAN","address":"361 EASTERN PKWAY","city":"BROOKLYN","state":"NY ","zipcode":11216,"phone":"718-789-6300","cartodb_georef_status":true,"typefull":"General Practitioner"}},{"type":"Feature","geometry":{"type":"Point","coordinates":[-73.94869,40.8293]},"properties":{"cartodb_id":31,"type":"GP","name":"SP DENTAL  P.C.","address":"3627 BROADWAY","city":"NEW YORK","state":"NY ","zipcode":10031,"phone":"212-234-2300","cartodb_georef_status":true,"typefull":"General Practitioner"}},{"type":"Feature","geometry":{"type":"Point","coordinates":[-73.91462,41.01231]},"properties":{"cartodb_id":128,"type":"GP","name":"PALISA.MALL.DEN","address":"3645 PALISADES CTR.DR. ","city":"WEST NYACK","state":"NY ","zipcode":10994,"phone":"845-353-3350","cartodb_georef_status":true,"typefull":"General Practitioner"}},{"type":"Feature","geometry":{"type":"Point","coordinates":[-73.98036,40.68742]},"properties":{"cartodb_id":191,"type":"GP","name":"LIVINGSTON DENT","address":"366 LIVNGSTON STREET","city":"BROOKLYN","state":"NY ","zipcode":11217,"phone":"718-722-7700","cartodb_georef_status":true,"typefull":"General Practitioner"}},{"type":"Feature","geometry":{"type":"Point","coordinates":[-73.884384,40.749142]},"properties":{"cartodb_id":549,"type":"OS","name":"RODNEY RAST PLL","address":"37-06 82ND ST STE #304 ","city":"JACKSON HEIGHTS ","state":"NY ","zipcode":11372,"phone":"516-482-0329","cartodb_georef_status":true,"typefull":"Oral Surgeon"}},{"type":"Feature","geometry":{"type":"Point","coordinates":[-73.91492,40.76577]},"properties":{"cartodb_id":400,"type":"EN","name":"LIAO KENNETH","address":"37-14 28TH AVENUE","city":"ASTORIA","state":"NY ","zipcode":11103,"phone":"718-278-5858","cartodb_georef_status":true,"typefull":"Endodontist"}},{"type":"Feature","geometry":{"type":"Point","coordinates":[-73.87646,40.75]},"properties":{"cartodb_id":268,"type":"GP","name":"D&S DENTAL","address":"3717 90TH STREET STE1  ","city":"JACKSON HEIGHTS ","state":"NY ","zipcode":11372,"phone":"718-458-1929","cartodb_georef_status":true,"typefull":"General Practitioner"}},{"type":"Feature","geometry":{"type":"Point","coordinates":[-73.89047,40.74841]},"properties":{"cartodb_id":271,"type":"GP","name":"FRANTZ BACKER","address":"37-21 75TH STREET","city":"JACKSON HEIGHTS ","state":"NY ","zipcode":11372,"phone":"718-476-3800","cartodb_georef_status":true,"typefull":"General Practitioner"}},{"type":"Feature","geometry":{"type":"Point","coordinates":[-73.87562,40.74995]},"properties":{"cartodb_id":274,"type":"GP","name":"UMME MABIA RASH","address":"37-23 91ST STREET","city":"JACKSON HEIGHTS ","state":"NY ","zipcode":11372,"phone":"718-701-4121","cartodb_georef_status":true,"typefull":"General Practitioner"}},{"type":"Feature","geometry":{"type":"Point","coordinates":[-73.86776,40.75768]},"properties":{"cartodb_id":264,"type":"GP","name":"L&L DENTAL CARE","address":"100-17 NORTHERN BLVD","city":"CORONA","state":"NY ","zipcode":11368,"phone":"718-424-9210","cartodb_georef_status":true,"typefull":"General Practitioner"}},{"type":"Feature","geometry":{"type":"Point","coordinates":[-73.94767,40.62652]},"properties":{"cartodb_id":575,"type":"PE","name":"M KELMAN","address":"1001 E 29 ST","city":"BROOKLYN","state":"NY ","zipcode":11210,"phone":"718-377-0697","cartodb_georef_status":true,"typefull":"Periodontist"}},{"type":"Feature","geometry":{"type":"Point","coordinates":[-73.94767,40.62652]},"properties":{"cartodb_id":174,"type":"GP","name":"M KELMAN","address":"1001 EAST 29TH STREET  ","city":"BROOKLYN","state":"NY ","zipcode":11210,"phone":"718-377-0697","cartodb_georef_status":true,"typefull":"General Practitioner"}},{"type":"Feature","geometry":{"type":"Point","coordinates":[-73.92312,40.68926]},"properties":{"cartodb_id":199,"type":"GP","name":"ROSENBERG/MALOF","address":"1008 GATES AVENUE","city":"BROOKLYN","state":"NY ","zipcode":11221,"phone":"718-452-1307","cartodb_georef_status":true,"typefull":"General Practitioner"}},{"type":"Feature","geometry":{"type":"Point","coordinates":[-73.92312,40.68926]},"properties":{"cartodb_id":198,"type":"GP","name":"H MALOFF","address":"1008 GATES AVE","city":"BROOKLYN","state":"NY ","zipcode":11221,"phone":"718-452-1307","cartodb_georef_status":true,"typefull":"General Practitioner"}},{"type":"Feature","geometry":{"type":"Point","coordinates":[-73.82153,40.8639]},"properties":{"cartodb_id":111,"type":"GP","name":"P SHAPIRO","address":"100 ELGAR PLACE","city":"BRONX","state":"NY ","zipcode":10475,"phone":"718-671-6650","cartodb_georef_status":true,"typefull":"General Practitioner"}},{"type":"Feature","geometry":{"type":"Point","coordinates":[-73.82153,40.8639]},"properties":{"cartodb_id":112,"type":"GP","name":"TONY CHEN","address":"100 ELGAR PLACE","city":"BRONX","state":"NY ","zipcode":10475,"phone":"718-671-6650","cartodb_georef_status":true,"typefull":"General Practitioner"}},{"type":"Feature","geometry":{"type":"Point","coordinates":[-73.956553,40.755702]},"properties":{"cartodb_id":116,"type":"GP","name":"GALLERIA MALL","address":"100 MAIN STREET","city":"WHITE PLAINS","state":"NY ","zipcode":10601,"phone":"914-997-9000","cartodb_georef_status":true,"typefull":"General Practitioner"}},{"type":"Feature","geometry":{"type":"Point","coordinates":[-73.750578,40.773488]},"properties":{"cartodb_id":374,"type":"GP","name":"V SHAH","address":"100-NEWBRIDGE RD STE 8 ","city":"HICKSVILLE","state":"NY ","zipcode":11801,"phone":"516-470-1640","cartodb_georef_status":true,"typefull":"General Practitioner"}},{"type":"Feature","geometry":{"type":"Point","coordinates":[-73.96959,40.64701]},"properties":{"cartodb_id":192,"type":"GP","name":"F CHURCH AVE FAM  ","address":"1025 CHURCH AVE","city":"BROOKLYN","state":"NY ","zipcode":11218,"phone":"718-469-6077","cartodb_georef_status":true,"typefull":"General Practitioner"}},{"type":"Feature","geometry":{"type":"Point","coordinates":[-73.89862,40.84006]},"properties":{"cartodb_id":562,"type":"PD","name":"K VANVORST","address":"102 FULTON AVE STE B","city":"POUGHKEEPSIE","state":"NY ","zipcode":12603,"phone":"845-454-4800","cartodb_georef_status":true,"typefull":"Pedodontist"}},{"type":"Feature","geometry":{"type":"Point","coordinates":[-73.862651,40.749368]},"properties":{"cartodb_id":587,"type":"PE","name":"L UGLIALORO","address":"103-08 ROOSEVELT AVE","city":"CORONA","state":"NY ","zipcode":11368,"phone":"718-397-8000","cartodb_georef_status":true,"typefull":"Periodontist"}},{"type":"Feature","geometry":{"type":"Point","coordinates":[-73.862651,40.749368]},"properties":{"cartodb_id":546,"type":"OS","name":"ORAL & MAXILLO","address":"103-08 ROOSEVELT AVE","city":"CORONA","state":"NY ","zipcode":11368,"phone":"718-397-9000","cartodb_georef_status":true,"typefull":"Oral Surgeon"}},{"type":"Feature","geometry":{"type":"Point","coordinates":[-73.8653,40.75793]},"properties":{"cartodb_id":266,"type":"GP","name":"UMME MABIA RASH","address":"103-09 NORTHERN BLVD","city":"CORONA","state":"NY ","zipcode":11368,"phone":"718-228-4640","cartodb_georef_status":true,"typefull":"General Practitioner"}},{"type":"Feature","geometry":{"type":"Point","coordinates":[-73.82408,40.6868]},"properties":{"cartodb_id":498,"type":"OR","name":"RICHMOND HILL","address":"103-45 LEFFERTS BLVD","city":"SOUTH RICHMOND  ","state":"NY ","zipcode":11419,"phone":"718-529-0230","cartodb_georef_status":true,"typefull":"Orthodontist"}},{"type":"Feature","geometry":{"type":"Point","coordinates":[-73.82568,40.79299]},"properties":{"cartodb_id":295,"type":"GP","name":"A KAPLAN","address":"107-21 QUEENS BLVD-#5  ","city":"FOREST HILLS","state":"NY ","zipcode":11375,"phone":"718-268-0600","cartodb_georef_status":true,"typefull":"General Practitioner"}},{"type":"Feature","geometry":{"type":"Point","coordinates":[-73.84457,40.72122]},"properties":{"cartodb_id":293,"type":"GP","name":"HORIZON DENTAL","address":"107-50 QUEENS BLVD","city":"FOREST HILLS","state":"NY ","zipcode":11375,"phone":"718-793-1777","cartodb_georef_status":true,"typefull":"General Practitioner"}},{"type":"Feature","geometry":{"type":"Point","coordinates":[-73.84457,40.72122]},"properties":{"cartodb_id":294,"type":"GP","name":"HORIZON DENTAL","address":"107-50 QUEENS BLVD","city":"FOREST HILLS","state":"NY ","zipcode":11375,"phone":"718-793-1777","cartodb_georef_status":true,"typefull":"General Practitioner"}},{"type":"Feature","geometry":{"type":"Point","coordinates":[-74.00648,40.71547]},"properties":{"cartodb_id":409,"type":"MS","name":"FATEN AHMED PC","address":"108 DUANE STREET-G/FL  ","city":"NEW YORK","state":"NY ","zipcode":10007,"phone":"212-966-5551","cartodb_georef_status":true,"typefull":"Multiple Specialist"}},{"type":"Feature","geometry":{"type":"Point","coordinates":[-73.938915,40.751393]},"properties":{"cartodb_id":135,"type":"GP","name":"THE FLOAT HOSP.","address":"41-40 27TH ST.","city":"L. I. C.","state":"NY ","zipcode":11101,"phone":"718-784-2240","cartodb_georef_status":true,"typefull":"General Practitioner"}},{"type":"Feature","geometry":{"type":"Point","coordinates":[-73.82693,40.7578]},"properties":{"cartodb_id":254,"type":"GP","name":"M CARPO","address":"41-61 KISSENA BLVD.#5  ","city":"FLUSHING","state":"NY ","zipcode":11355,"phone":"718-886-6666","cartodb_georef_status":true,"typefull":"General Practitioner"}},{"type":"Feature","geometry":{"type":"Point","coordinates":[-73.82284,40.75805]},"properties":{"cartodb_id":256,"type":"GP","name":"JUDY HOU","address":"41-63 BOWNE STREET","city":"FLUSHING","state":"NY ","zipcode":11355,"phone":"718-762-0299","cartodb_georef_status":true,"typefull":"General Practitioner"}},{"type":"Feature","geometry":{"type":"Point","coordinates":[-73.922116,40.808931]},"properties":{"cartodb_id":73,"type":"GP","name":"WILLIS DENTAL","address":"417 E 138 STREET","city":"BRONX","state":"NY ","zipcode":10454,"phone":"718-292-6311","cartodb_georef_status":true,"typefull":"General Practitioner"}},{"type":"Feature","geometry":{"type":"Point","coordinates":[-73.922,40.80856]},"properties":{"cartodb_id":72,"type":"GP","name":"A HIRJI","address":"424 EAST 138TH STREET  ","city":"BRONX","state":"NY ","zipcode":10454,"phone":"718-585-3311","cartodb_georef_status":true,"typefull":"General Practitioner"}},{"type":"Feature","geometry":{"type":"Point","coordinates":[-77.15606,42.59868]},"properties":{"cartodb_id":365,"type":"GP","name":"SUNRISE DENTAL","address":"4250 JERUSALEM AVE","city":"MASSAPEQUA","state":"NY ","zipcode":11758,"phone":"516-541-7300","cartodb_georef_status":true,"typefull":"General Practitioner"}},{"type":"Feature","geometry":{"type":"Point","coordinates":[-73.93533,40.85058]},"properties":{"cartodb_id":35,"type":"GP","name":"COHEN GENTLEDEN","address":"4260 BRAODWAY","city":"NEW YORK","state":"NY ","zipcode":10033,"phone":"212-923-5555","cartodb_georef_status":true,"typefull":"General Practitioner"}},{"type":"Feature","geometry":{"type":"Point","coordinates":[-74.02899,40.6228]},"properties":{"cartodb_id":541,"type":"OS","name":"BAY RIDGE-ORAL","address":"372 86TH STREET","city":"BROOKLYN","state":"NY ","zipcode":11209,"phone":"718-680-6565","cartodb_georef_status":true,"typefull":"Oral Surgeon"}},{"type":"Feature","geometry":{"type":"Point","coordinates":[-73.89404,40.74746]},"properties":{"cartodb_id":272,"type":"GP","name":"QUEENS DENT.OFF","address":"37-42 72ND. ST.","city":"JACKSON HEIGHTS ","state":"NY ","zipcode":11372,"phone":"347-642-3100","cartodb_georef_status":true,"typefull":"General Practitioner"}},{"type":"Feature","geometry":{"type":"Point","coordinates":[-73.917182,40.761517]},"properties":{"cartodb_id":138,"type":"GP","name":"A RICHER","address":"38-03 31ST AVENUE","city":"LONG ISLAND CIT ","state":"NY ","zipcode":11103,"phone":"718-278-8183","cartodb_georef_status":true,"typefull":"General Practitioner"}},{"type":"Feature","geometry":{"type":"Point","coordinates":[-73.86926,40.74941]},"properties":{"cartodb_id":263,"type":"GP","name":"M BIENENSTOCK","address":"38-09 JUNCTION BLVD","city":"CORONA","state":"NY ","zipcode":11368,"phone":"718-639-7100","cartodb_georef_status":true,"typefull":"General Practitioner"}},{"type":"Feature","geometry":{"type":"Point","coordinates":[-73.98107,40.733812]},"properties":{"cartodb_id":218,"type":"GP","name":"KLODIANA","address":"380 E.18TH ST SUITE#LD ","city":"BROOKLYN","state":"NY ","zipcode":11226,"phone":"718-287-4220","cartodb_georef_status":true,"typefull":"General Practitioner"}},{"type":"Feature","geometry":{"type":"Point","coordinates":[-84.301762,38.392159]},"properties":{"cartodb_id":506,"type":"OR","name":"CASTRONOVA JOHN","address":"380 SUNRISE MALL","city":"MASSAPEQUA","state":"NY ","zipcode":11758,"phone":"516-797-7799","cartodb_georef_status":true,"typefull":"Orthodontist"}},{"type":"Feature","geometry":{"type":"Point","coordinates":[-84.301762,38.392159]},"properties":{"cartodb_id":507,"type":"OR","name":"NASSAU CNTY ORT","address":"380 SUNRISE MALL","city":"MASSAPEQUA","state":"NY ","zipcode":11758,"phone":"516-797-7799","cartodb_georef_status":true,"typefull":"Orthodontist"}},{"type":"Feature","geometry":{"type":"Point","coordinates":[-73.83195,40.75945]},"properties":{"cartodb_id":250,"type":"GP","name":"ACCELLENT DENT","address":"39-07 PRINCE ST  #3D","city":"FLUSHING","state":"NY ","zipcode":11354,"phone":"718-463-5268","cartodb_georef_status":true,"typefull":"General Practitioner"}},{"type":"Feature","geometry":{"type":"Point","coordinates":[-73.77133,40.76488]},"properties":{"cartodb_id":258,"type":"GP","name":"ALLA HART PC","address":"39-15 BELL BLVD","city":"BAYSIDE","state":"NY ","zipcode":11361,"phone":"718-225-6677","cartodb_georef_status":true,"typefull":"General Practitioner"}},{"type":"Feature","geometry":{"type":"Point","coordinates":[-73.77133,40.76488]},"properties":{"cartodb_id":259,"type":"GP","name":"J SEABROOK","address":"39-15 BELL BLVD","city":"BAYSIDE","state":"NY ","zipcode":11361,"phone":"718-225-6677","cartodb_georef_status":true,"typefull":"General Practitioner"}},{"type":"Feature","geometry":{"type":"Point","coordinates":[-73.94203,40.83841]},"properties":{"cartodb_id":520,"type":"OS","name":"MANHATTAN ORAL","address":"3915 BROADWAY","city":"NEW YORK","state":"NY ","zipcode":10032,"phone":"212-567-5536","cartodb_georef_status":true,"typefull":"Oral Surgeon"}},{"type":"Feature","geometry":{"type":"Point","coordinates":[-73.91809,40.81644]},"properties":{"cartodb_id":468,"type":"OR","name":"MODERN ORTHODON","address":"391 E 149TH ST STE#214 ","city":"BRONX","state":"NY ","zipcode":10455,"phone":"718-993-5454","cartodb_georef_status":true,"typefull":"Orthodontist"}},{"type":"Feature","geometry":{"type":"Point","coordinates":[-74.01169,40.70777]},"properties":{"cartodb_id":33,"type":"GP","name":"WASHINGTON HTS","address":"3928 BOADWAY --1ST FL  ","city":"NEW YORK","state":"NY ","zipcode":10032,"phone":"212-543-0200","cartodb_georef_status":true,"typefull":"General Practitioner"}},{"type":"Feature","geometry":{"type":"Point","coordinates":[-74.16353,40.54216]},"properties":{"cartodb_id":416,"type":"MS","name":"RICHMOND DENTAL","address":"3930 RICHMOND AVENUE","city":"STATEN ISLAND","state":"NY ","zipcode":10312,"phone":"718-966-0989","cartodb_georef_status":true,"typefull":"Multiple Specialist"}},{"type":"Feature","geometry":{"type":"Point","coordinates":[-74.16353,40.54216]},"properties":{"cartodb_id":568,"type":"PE","name":"ADVANCED PERIO","address":"3930 RICHMOND AVE","city":"STATEN ISLAND","state":"NY ","zipcode":10312,"phone":"718-966-0989","cartodb_georef_status":true,"typefull":"Periodontist"}},{"type":"Feature","geometry":{"type":"Point","coordinates":[-74.5765,41.15422]},"properties":{"cartodb_id":448,"type":"OR","name":"DIAMOND BRACES","address":"401 HAMBURG TPKE #210  ","city":"WAYNE","state":"NJ ","zipcode":7470,"phone":"973-952-5550","cartodb_georef_status":true,"typefull":"Orthodontist"}},{"type":"Feature","geometry":{"type":"Point","coordinates":[-73.99689,40.68064]},"properties":{"cartodb_id":229,"type":"GP","name":"CARROLL GARDENS","address":"402 COURT STREET","city":"BROOKLYN","state":"NY ","zipcode":11231,"phone":"718-834-1446","cartodb_georef_status":true,"typefull":"General Practitioner"}},{"type":"Feature","geometry":{"type":"Point","coordinates":[-73.88387,40.746368]},"properties":{"cartodb_id":277,"type":"GP","name":"H KAUR","address":"40-42 82ND STREET","city":"JACKSON HEIGHTS ","state":"NY ","zipcode":11373,"phone":"718-457-9000","cartodb_georef_status":true,"typefull":"General Practitioner"}},{"type":"Feature","geometry":{"type":"Point","coordinates":[-73.87793,40.65839]},"properties":{"cartodb_id":538,"type":"OS","name":"CAMPBELL  F","address":"405 COZINE AVE","city":"BROOKLYN","state":"NY ","zipcode":11207,"phone":"718-927-2530","cartodb_georef_status":true,"typefull":"Oral Surgeon"}},{"type":"Feature","geometry":{"type":"Point","coordinates":[-73.93903,40.84947]},"properties":{"cartodb_id":36,"type":"GP","name":"COHEN'S DENTAL","address":"427 FORT WASHINGTON AV ","city":"NEW YORK","state":"NY ","zipcode":10033,"phone":"212-923-7644","cartodb_georef_status":true,"typefull":"General Practitioner"}},{"type":"Feature","geometry":{"type":"Point","coordinates":[-74.15209,40.53549]},"properties":{"cartodb_id":523,"type":"OS","name":"ORAL SURGERY AS","address":"4300 HYLAN BLVD 2G","city":"STATEN ISLAND","state":"NY ","zipcode":10312,"phone":"718-967-3200","cartodb_georef_status":true,"typefull":"Oral Surgeon"}},{"type":"Feature","geometry":{"type":"Point","coordinates":[-74.08835,40.58441]},"properties":{"cartodb_id":53,"type":"GP","name":"L KELNER","address":"430 SEAVIEW AVE","city":"STATEN ISLAND","state":"NY ","zipcode":10305,"phone":"718-980-0844","cartodb_georef_status":true,"typefull":"General Practitioner"}},{"type":"Feature","geometry":{"type":"Point","coordinates":[-73.921752,40.741157]},"properties":{"cartodb_id":139,"type":"GP","name":"KMK DENTAL PC","address":"43-21 GREENPOINT AVE","city":"SUNNYSIDE","state":"NY ","zipcode":11104,"phone":"718-786-4175","cartodb_georef_status":true,"typefull":"General Practitioner"}},{"type":"Feature","geometry":{"type":"Point","coordinates":[-74.13837,40.63144]},"properties":{"cartodb_id":48,"type":"GP","name":"CHCR RICHMOND","address":"439 PORT RICHMOND AVE  ","city":"STATEN ISLAND","state":"NY ","zipcode":10302,"phone":"917-830-0838","cartodb_georef_status":true,"typefull":"General Practitioner"}},{"type":"Feature","geometry":{"type":"Point","coordinates":[-73.920228,40.743632]},"properties":{"cartodb_id":286,"type":"GP","name":"S LANCEA","address":"44-17 QUEENS BLVD","city":"SUNNYSIDE","state":"NY ","zipcode":11374,"phone":"718-786-7100","cartodb_georef_status":true,"typefull":"General Practitioner"}},{"type":"Feature","geometry":{"type":"Point","coordinates":[-73.919188,40.813864]},"properties":{"cartodb_id":74,"type":"GP","name":"COHEN'S GEN DEN","address":"444 WILLIS AVE","city":"BRONX","state":"NY ","zipcode":10455,"phone":"718-585-4400","cartodb_georef_status":true,"typefull":"General Practitioner"}},{"type":"Feature","geometry":{"type":"Point","coordinates":[-93.916383,44.78265]},"properties":{"cartodb_id":337,"type":"GP","name":"A FUNDO","address":"44 SOUTH CENTRAL AVE","city":"VALLEY STREAM","state":"NY ","zipcode":11510,"phone":"516-561-7788","cartodb_georef_status":true,"typefull":"General Practitioner"}},{"type":"Feature","geometry":null,"properties":{"cartodb_id":132,"type":"GP","name":"N S PATEL DDS PC  ","address":"22 SOUTH TYSON AVENUE  ","city":"FLORAL PARK","state":"NY ","zipcode":11001,"phone":"516-355-0155","cartodb_georef_status":false,"typefull":"General Practitioner"}},{"type":"Feature","geometry":{"type":"Point","coordinates":[-73.82939,40.75536]},"properties":{"cartodb_id":255,"type":"GP","name":"CHEN WANDA","address":"134-43 MAPLE AVE #C1A  ","city":"FLUSHING","state":"NY ","zipcode":11355,"phone":"718-886-2661","cartodb_georef_status":true,"typefull":"General Practitioner"}},{"type":"Feature","geometry":{"type":"Point","coordinates":[-80.24917,26.26218]},"properties":{"cartodb_id":395,"type":"GP","name":"GORFIENJACOBSOH","address":"4506 N. UNIVERSITY DR  ","city":"LAUDERHILL","state":"FL ","zipcode":33351,"phone":"954-742-0201","cartodb_georef_status":true,"typefull":"General Practitioner"}},{"type":"Feature","geometry":{"type":"Point","coordinates":[-73.96151,40.64023]},"properties":{"cartodb_id":221,"type":"GP","name":"W WILLIAMS","address":"450 EAST 18TH STREET","city":"BROOKLYN","state":"NY ","zipcode":11226,"phone":"718-462-2300","cartodb_georef_status":true,"typefull":"General Practitioner"}},{"type":"Feature","geometry":{"type":"Point","coordinates":[-73.93317,40.62977]},"properties":{"cartodb_id":233,"type":"GP","name":"KINGS HWY DENT","address":"4571 KINGS HIGHWAY","city":"BROOKLYN","state":"NY ","zipcode":11234,"phone":"718-692-4791","cartodb_georef_status":true,"typefull":"General Practitioner"}},{"type":"Feature","geometry":{"type":"Point","coordinates":[-73.93317,40.62977]},"properties":{"cartodb_id":232,"type":"GP","name":"G J HASKIN","address":"4571 KINGS HIGHWAY","city":"BROOKLYN","state":"NY ","zipcode":11234,"phone":"718-692-4791","cartodb_georef_status":true,"typefull":"General Practitioner"}},{"type":"Feature","geometry":{"type":"Point","coordinates":[-73.97281,40.60439]},"properties":{"cartodb_id":205,"type":"GP","name":"L KELNER DDS PC","address":"457 KINGS HIGHWAY","city":"BROOKLYN","state":"NY ","zipcode":11223,"phone":"718-382-5005","cartodb_georef_status":true,"typefull":"General Practitioner"}},{"type":"Feature","geometry":{"type":"Point","coordinates":[-73.99037,40.71637]},"properties":{"cartodb_id":124,"type":"GP","name":"YONKERS DENTAL","address":"45 LUDLOW ST-STE 418","city":"YONKERS","state":"NY ","zipcode":10705,"phone":"914-968-4070","cartodb_georef_status":true,"typefull":"General Practitioner"}},{"type":"Feature","geometry":{"type":"Point","coordinates":[-81.64494,41.45563]},"properties":{"cartodb_id":121,"type":"GP","name":"CENTRAL PK DENT","address":"460 S. BROADWAY 2ND FL ","city":"YONKERS","state":"NY ","zipcode":10705,"phone":"914-378-0918","cartodb_georef_status":true,"typefull":"General Practitioner"}},{"type":"Feature","geometry":{"type":"Point","coordinates":[-81.64494,41.45563]},"properties":{"cartodb_id":123,"type":"GP","name":"W.CHESTER ELITE","address":"460 S. BROADWAY 2ND.FL ","city":"YONKERS","state":"NY ","zipcode":10705,"phone":"914-378-0918","cartodb_georef_status":true,"typefull":"General Practitioner"}},{"type":"Feature","geometry":{"type":"Point","coordinates":[-81.64494,41.45563]},"properties":{"cartodb_id":120,"type":"GP","name":"N S AQEEL","address":"460 S. BROADWAY 2ND.FL ","city":"YONKERS","state":"NY ","zipcode":10705,"phone":"914-378-0918","cartodb_georef_status":true,"typefull":"General Practitioner"}},{"type":"Feature","geometry":{"type":"Point","coordinates":[-81.64494,41.45563]},"properties":{"cartodb_id":122,"type":"GP","name":"PEARL DENTAL","address":"462 SOUTH BROADWAY","city":"YONKERS","state":"NY ","zipcode":10705,"phone":"914-376-6138","cartodb_georef_status":true,"typefull":"General Practitioner"}},{"type":"Feature","geometry":{"type":"Point","coordinates":[-86.31075,41.35303]},"properties":{"cartodb_id":380,"type":"GP","name":"SUNSHINE DENTAL","address":"4656 E MICHIGAN ST","city":"ORLANDO","state":"FL ","zipcode":32812,"phone":"407-282-2313","cartodb_georef_status":true,"typefull":"General Practitioner"}},{"type":"Feature","geometry":{"type":"Point","coordinates":[-73.88933,40.86039]},"properties":{"cartodb_id":419,"type":"MS","name":"FORDHAM PL DENT","address":"466 EAST FORDHAM RD","city":"BRONX","state":"NY ","zipcode":10458,"phone":"718-365-4300","cartodb_georef_status":true,"typefull":"Multiple Specialist"}},{"type":"Feature","geometry":{"type":"Point","coordinates":[-73.897817,40.847106]},"properties":{"cartodb_id":80,"type":"GP","name":"BRONX COMM DEN","address":"471 E TREMONT AVE","city":"BRONX","state":"NY ","zipcode":10457,"phone":"718-294-1040","cartodb_georef_status":true,"typefull":"General Practitioner"}},{"type":"Feature","geometry":{"type":"Point","coordinates":[-73.92077,40.835731]},"properties":{"cartodb_id":64,"type":"GP","name":"COMMUNITY DENT","address":"47 E 167 STREET","city":"BRONX","state":"NY ","zipcode":10452,"phone":"718-293-1603","cartodb_georef_status":true,"typefull":"General Practitioner"}},{"type":"Feature","geometry":{"type":"Point","coordinates":[-73.92077,40.835731]},"properties":{"cartodb_id":65,"type":"GP","name":"NYC COMM DENT","address":"47 EAST 167TH STREET","city":"BRONX","state":"NY ","zipcode":10452,"phone":"718-293-1603","cartodb_georef_status":true,"typefull":"General Practitioner"}},{"type":"Feature","geometry":{"type":"Point","coordinates":[-74.111799,40.601135]},"properties":{"cartodb_id":500,"type":"OR","name":"D SUKOFF","address":"47 MERRICK AVE","city":"MERRICK","state":"NY ","zipcode":11566,"phone":"516-868-3131","cartodb_georef_status":true,"typefull":"Orthodontist"}},{"type":"Feature","geometry":{"type":"Point","coordinates":[-73.92848,40.62596]},"properties":{"cartodb_id":235,"type":"GP","name":"RADIX DENTAL","address":"4901 AVENUE K","city":"BROOKLYN","state":"NY ","zipcode":11234,"phone":"718-377-6200","cartodb_georef_status":true,"typefull":"General Practitioner"}},{"type":"Feature","geometry":{"type":"Point","coordinates":[-73.99766,40.63816]},"properties":{"cartodb_id":484,"type":"OR","name":"D GOLDSCHEIN","address":"4901 FT HAMILTON PKWY  ","city":"BROOKLYN","state":"NY ","zipcode":11219,"phone":"718-438-3701","cartodb_georef_status":true,"typefull":"Orthodontist"}},{"type":"Feature","geometry":{"type":"Point","coordinates":[-74.09086,40.59634]},"properties":{"cartodb_id":367,"type":"GP","name":"CONCERNED DENT","address":"492 OLD TOWN ROAD","city":"PT JEFFERSON","state":"NY ","zipcode":11776,"phone":"631-928-1018","cartodb_georef_status":true,"typefull":"General Practitioner"}},{"type":"Feature","geometry":{"type":"Point","coordinates":[-81.64918,41.47167]},"properties":{"cartodb_id":505,"type":"OR","name":"S R KHAN","address":"500 N. BROADWAY STE146 ","city":"JERICHO","state":"NY ","zipcode":11753,"phone":"516-932-6200","cartodb_georef_status":true,"typefull":"Orthodontist"}},{"type":"Feature","geometry":{"type":"Point","coordinates":[-74.01522,40.64748]},"properties":{"cartodb_id":195,"type":"GP","name":"L LIGUORI","address":"5016 3RD AVENUE","city":"BROOKLYN","state":"NY ","zipcode":11220,"phone":"718-439-8558","cartodb_georef_status":true,"typefull":"General Practitioner"}},{"type":"Feature","geometry":{"type":"Point","coordinates":[-73.95671,40.69087]},"properties":{"cartodb_id":156,"type":"GP","name":"BROOKLYN DENTAL","address":"507 DEKALB AVE","city":"BROOKLYN","state":"NY ","zipcode":11205,"phone":"718-708-5559","cartodb_georef_status":true,"typefull":"General Practitioner"}},{"type":"Feature","geometry":{"type":"Point","coordinates":[-73.855008,40.7438]},"properties":{"cartodb_id":586,"type":"PE","name":"V SWAMINATHAN","address":"51-21 108TH STREET","city":"CORONA","state":"NY ","zipcode":11368,"phone":"718-699-9500","cartodb_georef_status":true,"typefull":"Periodontist"}},{"type":"Feature","geometry":{"type":"Point","coordinates":[-73.855008,40.7438]},"properties":{"cartodb_id":430,"type":"MS","name":"COMFORTDENTALSP","address":"51-21 108TH STREET","city":"CORONA","state":"NY ","zipcode":11368,"phone":"718-699-9500","cartodb_georef_status":true,"typefull":"Multiple Specialist"}},{"type":"Feature","geometry":{"type":"Point","coordinates":[-73.855008,40.7438]},"properties":{"cartodb_id":585,"type":"PE","name":"DR.VENKATESH-PC","address":"5121 108TH STREET","city":"CORONA","state":"NY ","zipcode":11368,"phone":"718-699-9500","cartodb_georef_status":true,"typefull":"Periodontist"}},{"type":"Feature","geometry":{"type":"Point","coordinates":[-73.9288,40.7026]},"properties":{"cartodb_id":248,"type":"GP","name":"WILSON AVE DENT","address":"51 WILSON AVE","city":"BROOKLYN","state":"NY ","zipcode":11237,"phone":"718-564-5432","cartodb_georef_status":true,"typefull":"General Practitioner"}},{"type":"Feature","geometry":{"type":"Point","coordinates":[-73.979398,40.642661]},"properties":{"cartodb_id":152,"type":"GP","name":"AFAM FMLY DENT","address":"52-05 CHURCH AVE 2NDFL ","city":"BROOKLYN","state":"NY ","zipcode":11203,"phone":"718-485-4111","cartodb_georef_status":true,"typefull":"General Practitioner"}},{"type":"Feature","geometry":{"type":"Point","coordinates":[-73.90995,40.87483]},"properties":{"cartodb_id":528,"type":"OS","name":"MANHATTAN ORAL","address":"5209 BROADWAY","city":"BRONX","state":"NY ","zipcode":10463,"phone":"646-964-5960","cartodb_georef_status":true,"typefull":"Oral Surgeon"}},{"type":"Feature","geometry":{"type":"Point","coordinates":[-80.18264,26.24203]},"properties":{"cartodb_id":384,"type":"GP","name":"B J SHETH","address":"5239 COCONUT CREEK PKY ","city":"MARGATE","state":"FL ","zipcode":33063,"phone":"954-979-8631","cartodb_georef_status":true,"typefull":"General Practitioner"}},{"type":"Feature","geometry":{"type":"Point","coordinates":[-73.96065,40.63757]},"properties":{"cartodb_id":488,"type":"OR","name":"I T WHITEHILL-GRA ","address":"539 EAST 18TH STREET","city":"BROOKLYN","state":"NY ","zipcode":11226,"phone":"718-284-5656","cartodb_georef_status":true,"typefull":"Orthodontist"}},{"type":"Feature","geometry":{"type":"Point","coordinates":[-74.01523,40.64422]},"properties":{"cartodb_id":197,"type":"GP","name":"4TH AVE DENTAL","address":"5404 4TH AVENUE","city":"BROOKLYN","state":"NY ","zipcode":11220,"phone":"718-439-2876","cartodb_georef_status":true,"typefull":"General Practitioner"}},{"type":"Feature","geometry":{"type":"Point","coordinates":[-73.920143,40.611055]},"properties":{"cartodb_id":234,"type":"GP","name":"KINGS PLAZA DEN","address":"5412 KINGS PLAZA MALL  ","city":"BROOKLYN","state":"NY ","zipcode":11234,"phone":"718-258-0011","cartodb_georef_status":true,"typefull":"General Practitioner"}},{"type":"Feature","geometry":{"type":"Point","coordinates":[-74.028,40.61713]},"properties":{"cartodb_id":167,"type":"GP","name":"R NAKHAMIS","address":"544 92ND STREET","city":"BROOKLYN","state":"NY ","zipcode":11209,"phone":"718-680-0005","cartodb_georef_status":true,"typefull":"General Practitioner"}},{"type":"Feature","geometry":{"type":"Point","coordinates":[-74.15029,40.62561]},"properties":{"cartodb_id":49,"type":"GP","name":"J DAMIANO","address":"54 HUDSON PLACE","city":"STATEN ISLAND","state":"NY ","zipcode":10303,"phone":"718-447-3456","cartodb_georef_status":true,"typefull":"General Practitioner"}},{"type":"Feature","geometry":{"type":"Point","coordinates":[-73.9334,40.84817]},"properties":{"cartodb_id":34,"type":"GP","name":"AUDUBON DENTAL","address":"550 W 180TH ST STE X1  ","city":"NEW YORK","state":"NY ","zipcode":10033,"phone":"212-795-3486","cartodb_georef_status":true,"typefull":"General Practitioner"}},{"type":"Feature","geometry":{"type":"Point","coordinates":[-73.92318,40.63537]},"properties":{"cartodb_id":238,"type":"GP","name":"L WEISS","address":"5520 GLENWOOD ROAD","city":"BROOKLYN","state":"NY ","zipcode":11234,"phone":"718-763-0505","cartodb_georef_status":true,"typefull":"General Practitioner"}},{"type":"Feature","geometry":{"type":"Point","coordinates":[-73.894658,40.727376]},"properties":{"cartodb_id":496,"type":"OR","name":"S R KHAN","address":"55-36 69TH PLACE","city":"MASPETH","state":"NY ","zipcode":11378,"phone":"718-533-6200","cartodb_georef_status":true,"typefull":"Orthodontist"}},{"type":"Feature","geometry":{"type":"Point","coordinates":[-73.5337,40.87235]},"properties":{"cartodb_id":375,"type":"GP","name":"G E SEGAL","address":"555 SO OYSTER BAY RD","city":"PLAINVIEW","state":"NY ","zipcode":11803,"phone":"516-935-2530","cartodb_georef_status":true,"typefull":"General Practitioner"}},{"type":"Feature","geometry":{"type":"Point","coordinates":[-73.88285,40.87899]},"properties":{"cartodb_id":421,"type":"MS","name":"J FENSTERSTOCK","address":"55 E MOSHOLU PKWY N","city":"BRONX","state":"NY ","zipcode":10467,"phone":"718-652-7370","cartodb_georef_status":true,"typefull":"Multiple Specialist"}},{"type":"Feature","geometry":{"type":"Point","coordinates":[-73.93874,40.84155]},"properties":{"cartodb_id":414,"type":"MS","name":"FALGUNIPATELDEN","address":"563 W 169TH STREET","city":"NEW YORK","state":"NY ","zipcode":10032,"phone":"212-923-3375","cartodb_georef_status":true,"typefull":"Multiple Specialist"}},{"type":"Feature","geometry":{"type":"Point","coordinates":[-73.997952,40.691071]},"properties":{"cartodb_id":341,"type":"GP","name":"M P FIRESTONE","address":"56 ATLANTIC AVE","city":"FREEPORT","state":"NY ","zipcode":11520,"phone":"516-546-6310","cartodb_georef_status":true,"typefull":"General Practitioner"}},{"type":"Feature","geometry":{"type":"Point","coordinates":[-74.21802,40.53913]},"properties":{"cartodb_id":55,"type":"GP","name":"R TURCHAK","address":"570 BLOOMINGDALE RD","city":"STATEN ISLAND","state":"NY ","zipcode":10309,"phone":"718-356-5310","cartodb_georef_status":true,"typefull":"General Practitioner"}},{"type":"Feature","geometry":{"type":"Point","coordinates":[-73.97654,40.76438]},"properties":{"cartodb_id":19,"type":"GP","name":"P C MIDTOWN DENTA ","address":"57 WEST 57TH ST SUT700 ","city":"NEW YORK","state":"NY ","zipcode":10019,"phone":"212-355-4097","cartodb_georef_status":true,"typefull":"General Practitioner"}},{"type":"Feature","geometry":{"type":"Point","coordinates":[-73.97861,40.75693]},"properties":{"cartodb_id":184,"type":"GP","name":"B KETOVER.DMD LLC ","address":"580 5TH AVEUE","city":"BROOKLYN","state":"NY ","zipcode":11215,"phone":"718-768-8400","cartodb_georef_status":true,"typefull":"General Practitioner"}},{"type":"Feature","geometry":{"type":"Point","coordinates":[-73.98148,40.68925]},"properties":{"cartodb_id":150,"type":"GP","name":"PAVEL NDERMAN","address":"585 FULTON ST STE 2","city":"BROOKLYN","state":"NY ","zipcode":11201,"phone":"718-624-6204","cartodb_georef_status":true,"typefull":"General Practitioner"}},{"type":"Feature","geometry":{"type":"Point","coordinates":[-73.93778,40.84331]},"properties":{"cartodb_id":32,"type":"GP","name":"PERA DENT.CARE","address":"590 W.172ND ST.STE#1F  ","city":"NEW YORK","state":"NY ","zipcode":10032,"phone":"212-928-9999","cartodb_georef_status":true,"typefull":"General Practitioner"}},{"type":"Feature","geometry":{"type":"Point","coordinates":[-73.89374,40.84658]},"properties":{"cartodb_id":81,"type":"GP","name":"COMFORTDENTCARE","address":"591 E. TREMONT AVE","city":"BRONX","state":"NY ","zipcode":10457,"phone":"646-393-5181","cartodb_georef_status":true,"typefull":"General Practitioner"}},{"type":"Feature","geometry":{"type":"Point","coordinates":[-74.09054,40.638307]},"properties":{"cartodb_id":556,"type":"OS","name":"RODNEY RAST PLL","address":"601 FRANKLIN AVE. #110 ","city":"GARDEN CITY","state":"NY ","zipcode":11530,"phone":"516-741-4415","cartodb_georef_status":true,"typefull":"Oral Surgeon"}},{"type":"Feature","geometry":{"type":"Point","coordinates":[-73.87034,40.86127]},"properties":{"cartodb_id":97,"type":"GP","name":"S GOLDSTEIN","address":"610 WARING AVE","city":"BRONX","state":"NY ","zipcode":10467,"phone":"718-881-5042","cartodb_georef_status":true,"typefull":"General Practitioner"}},{"type":"Feature","geometry":{"type":"Point","coordinates":[-73.891036,40.719078]},"properties":{"cartodb_id":403,"type":"EN","name":"E N CENTRAL QUEEN ","address":"61-12 69TH ST STE 4P","city":"MIDDLE VILLAGE  ","state":"NY ","zipcode":11379,"phone":"718-406-9306","cartodb_georef_status":true,"typefull":"Endodontist"}},{"type":"Feature","geometry":{"type":"Point","coordinates":[-73.90287,40.91066]},"properties":{"cartodb_id":531,"type":"OS","name":"MANHATTAN ORAL","address":"6118 RIVERDALE AVE","city":"BRONX","state":"NY ","zipcode":10471,"phone":"347-590-9915","cartodb_georef_status":true,"typefull":"Oral Surgeon"}},{"type":"Feature","geometry":{"type":"Point","coordinates":[-81.53135,30.33254]},"properties":{"cartodb_id":383,"type":"GP","name":"FAMILY DENTAL","address":"6130 W.ATLANTIC BLVD","city":"MARGATE","state":"FL ","zipcode":33063,"phone":"954-973-0990","cartodb_georef_status":true,"typefull":"General Practitioner"}},{"type":"Feature","geometry":{"type":"Point","coordinates":[-73.786712,40.740376]},"properties":{"cartodb_id":261,"type":"GP","name":"A DORNBERG","address":"61-34 188TH STREET","city":"FRESH MEADOWS","state":"NY ","zipcode":11365,"phone":"718-454-8666","cartodb_georef_status":true,"typefull":"General Practitioner"}},{"type":"Feature","geometry":{"type":"Point","coordinates":[-73.786712,40.740376]},"properties":{"cartodb_id":584,"type":"PE","name":"EDWARD KIM","address":"61-34 188TH ST STE#210 ","city":"FRESH MEADOWS","state":"NY ","zipcode":11365,"phone":"718-454-7334","cartodb_georef_status":true,"typefull":"Periodontist"}},{"type":"Feature","geometry":{"type":"Point","coordinates":[-73.860319,40.734227]},"properties":{"cartodb_id":281,"type":"GP","name":"BEAUTIFUL SMILE","address":"61-55 98TH ST. STE#1L  ","city":"REGO PARK","state":"NY ","zipcode":11374,"phone":"718-699-8854","cartodb_georef_status":true,"typefull":"General Practitioner"}},{"type":"Feature","geometry":{"type":"Point","coordinates":[-73.87028,40.72749]},"properties":{"cartodb_id":289,"type":"GP","name":"M SALES","address":"6161 WOODHAVEN BLVD 1N ","city":"REGO PARK","state":"NY ","zipcode":11374,"phone":"718-424-8900","cartodb_georef_status":true,"typefull":"General Practitioner"}},{"type":"Feature","geometry":{"type":"Point","coordinates":[-73.87028,40.72749]},"properties":{"cartodb_id":285,"type":"GP","name":"S LANCEA","address":"61-61 WOODHAVEN BLVD","city":"REGO PARK","state":"NY ","zipcode":11374,"phone":"718-898-4120","cartodb_georef_status":true,"typefull":"General Practitioner"}},{"type":"Feature","geometry":{"type":"Point","coordinates":[-73.89248,40.70072]},"properties":{"cartodb_id":303,"type":"GP","name":"SCOPU ANA","address":"62-22 MYRTLE AVE","city":"GLENDALE","state":"NY ","zipcode":11385,"phone":"718-821-7432","cartodb_georef_status":true,"typefull":"General Practitioner"}},{"type":"Feature","geometry":{"type":"Point","coordinates":[-73.89248,40.70072]},"properties":{"cartodb_id":304,"type":"GP","name":"SIMPLY SMILE","address":"6222 MYRTLE AVE","city":"GLENDALE","state":"NY ","zipcode":11385,"phone":"718-821-7432","cartodb_georef_status":true,"typefull":"General Practitioner"}},{"type":"Feature","geometry":{"type":"Point","coordinates":[-73.870499,40.726206]},"properties":{"cartodb_id":282,"type":"GP","name":"BRIGHT SMILE DE","address":"62-40 WOODHAVEN #P10","city":"REGO PARK","state":"NY ","zipcode":11374,"phone":"718-424-4818","cartodb_georef_status":true,"typefull":"General Practitioner"}},{"type":"Feature","geometry":{"type":"Point","coordinates":[-73.94452,40.80755]},"properties":{"cartodb_id":517,"type":"OS","name":"KINGS ORAL&FACI","address":"63 W 125TH ST 2ND FL","city":"NEW YORK","state":"NY ","zipcode":10027,"phone":"212-348-9500","cartodb_georef_status":true,"typefull":"Oral Surgeon"}},{"type":"Feature","geometry":{"type":"Point","coordinates":[-73.94452,40.80755]},"properties":{"cartodb_id":518,"type":"OS","name":"ORAL & MAXILLO","address":"63 W 125TH ST 2ND FL","city":"NEW YORK","state":"NY ","zipcode":10027,"phone":"212-348-3600","cartodb_georef_status":true,"typefull":"Oral Surgeon"}},{"type":"Feature","geometry":{"type":"Point","coordinates":[-73.94452,40.80755]},"properties":{"cartodb_id":458,"type":"OR","name":"125TH ST BRACES","address":"63-W 125TH ST 2NDFL","city":"NEW YORK","state":"NY ","zipcode":10027,"phone":"212-348-3600","cartodb_georef_status":true,"typefull":"Orthodontist"}},{"type":"Feature","geometry":{"type":"Point","coordinates":[-74.01215,40.63319]},"properties":{"cartodb_id":194,"type":"GP","name":"P C HUANG DENT CA ","address":"6402 8TH AVE STE 304","city":"BROOKLYN","state":"NY ","zipcode":11220,"phone":"718-921-1188","cartodb_georef_status":true,"typefull":"General Practitioner"}},{"type":"Feature","geometry":{"type":"Point","coordinates":[-73.92274,40.83531]},"properties":{"cartodb_id":290,"type":"GP","name":"WILLIS DENTAL","address":"6442 CROMWELL AVENUE","city":"REGO PARK","state":"NY ","zipcode":11374,"phone":"914-472-1555","cartodb_georef_status":true,"typefull":"General Practitioner"}},{"type":"Feature","geometry":{"type":"Point","coordinates":[-73.89911,40.70948]},"properties":{"cartodb_id":301,"type":"GP","name":"I PATRASCU","address":"65-02 FRESH POND RD","city":"RIDGEWOOD","state":"NY ","zipcode":11385,"phone":"718-821-7100","cartodb_georef_status":true,"typefull":"General Practitioner"}},{"type":"Feature","geometry":{"type":"Point","coordinates":[-122.444577,37.775807]},"properties":{"cartodb_id":339,"type":"GP","name":"MY DENTIST PC","address":"650 CENTRAL AVE S#F","city":"CEDARHURST","state":"NY ","zipcode":11516,"phone":"516-374-2882","cartodb_georef_status":true,"typefull":"General Practitioner"}},{"type":"Feature","geometry":{"type":"Point","coordinates":[-73.907813,40.688036]},"properties":{"cartodb_id":340,"type":"GP","name":"A PERLMUTTER","address":"650 CENTRAL AVE-S#H","city":"CEDARHURST","state":"NY ","zipcode":11516,"phone":"516-295-1584","cartodb_georef_status":true,"typefull":"General Practitioner"}},{"type":"Feature","geometry":{"type":"Point","coordinates":[-73.907813,40.688036]},"properties":{"cartodb_id":338,"type":"GP","name":"ALAN ROSEN","address":"650 CENTRAL AVE-STE 0  ","city":"CEDARHURST","state":"NY ","zipcode":11516,"phone":"516-569-2666","cartodb_georef_status":true,"typefull":"General Practitioner"}},{"type":"Feature","geometry":{"type":"Point","coordinates":[-73.93576,40.84938]},"properties":{"cartodb_id":37,"type":"GP","name":"D DERISSE DMD","address":"651 WEST 180TH STREET  ","city":"NEW YORK","state":"NY ","zipcode":10033,"phone":"212-923-0505","cartodb_georef_status":true,"typefull":"General Practitioner"}},{"type":"Feature","geometry":{"type":"Point","coordinates":[-73.88895,40.70102]},"properties":{"cartodb_id":497,"type":"OR","name":"BILELLO VINCENT","address":"65-34 MYRTLE AVE","city":"GLENDALE","state":"NY ","zipcode":11385,"phone":"718-386-8728","cartodb_georef_status":true,"typefull":"Orthodontist"}},{"type":"Feature","geometry":{"type":"Point","coordinates":[-73.86357,40.71889]},"properties":{"cartodb_id":287,"type":"GP","name":"LUCKY DENTAL PC","address":"6555 WOODHAVEN BLVD","city":"REGO PARK","state":"NY ","zipcode":11374,"phone":"718-897-0800","cartodb_georef_status":true,"typefull":"General Practitioner"}},{"type":"Feature","geometry":{"type":"Point","coordinates":[-73.85608,40.89896]},"properties":{"cartodb_id":106,"type":"GP","name":"A ADEPETU","address":"660 NERERD AVENUE","city":"BRONX","state":"NY ","zipcode":10470,"phone":"718-547-5321","cartodb_georef_status":true,"typefull":"General Practitioner"}},{"type":"Feature","geometry":{"type":"Point","coordinates":[-73.90826,40.81592]},"properties":{"cartodb_id":75,"type":"GP","name":"NEW YORK DENTAL","address":"660 WESTCHESTER AVE","city":"BRONX","state":"NY ","zipcode":10455,"phone":"718-292-9646","cartodb_georef_status":true,"typefull":"General Practitioner"}},{"type":"Feature","geometry":{"type":"Point","coordinates":[-73.855619,40.726014]},"properties":{"cartodb_id":288,"type":"GP","name":"R ROSENFIELD","address":"66-55 BOOTH ST","city":"REGO PARK","state":"NY ","zipcode":11374,"phone":"718-896-9118","cartodb_georef_status":true,"typefull":"General Practitioner"}},{"type":"Feature","geometry":{"type":"Point","coordinates":[-74.02874,40.63677]},"properties":{"cartodb_id":196,"type":"GP","name":"A ZAVULUNOVA","address":"6830 RIDGE BLVD--#1B","city":"BROOKLYN","state":"NY ","zipcode":11220,"phone":"718-333-5185","cartodb_georef_status":true,"typefull":"General Practitioner"}},{"type":"Feature","geometry":{"type":"Point","coordinates":[-73.883389,40.701871]},"properties":{"cartodb_id":300,"type":"GP","name":"FLAWLESS DENTAL","address":"68-35 MYRTLE AVENUE","city":"GLENDALE","state":"NY ","zipcode":11385,"phone":"718-821-0170","cartodb_georef_status":true,"typefull":"General Practitioner"}},{"type":"Feature","geometry":{"type":"Point","coordinates":[-73.883389,40.701871]},"properties":{"cartodb_id":298,"type":"GP","name":"P C BOUTIQUE DENT ","address":"68-35 MYRTLE AVE","city":"GLENDALE","state":"NY ","zipcode":11385,"phone":"718-821-0170","cartodb_georef_status":true,"typefull":"General Practitioner"}},{"type":"Feature","geometry":{"type":"Point","coordinates":[-73.89534,40.70387]},"properties":{"cartodb_id":553,"type":"OS","name":"S R IZZO","address":"68-53 FRESH POND ROAD  ","city":"RIDGEWOOD","state":"NY ","zipcode":11385,"phone":"718-821-2545","cartodb_georef_status":true,"typefull":"Oral Surgeon"}},{"type":"Feature","geometry":{"type":"Point","coordinates":[-73.89534,40.70387]},"properties":{"cartodb_id":552,"type":"OS","name":"O RICHMAN PLLC","address":"68-53 FRESH POND ROAD  ","city":"RIDGEWOOD","state":"NY ","zipcode":11382,"phone":"718-821-2545","cartodb_georef_status":true,"typefull":"Oral Surgeon"}},{"type":"Feature","geometry":{"type":"Point","coordinates":[-73.89531,40.7444]},"properties":{"cartodb_id":297,"type":"GP","name":"PRUDENT DENTAL","address":"69-14 41ST AVE UNIT C1 ","city":"WOODSIDE","state":"NY ","zipcode":11377,"phone":"718-803-6300","cartodb_georef_status":true,"typefull":"General Practitioner"}},{"type":"Feature","geometry":{"type":"Point","coordinates":[-73.815067,40.733356]},"properties":{"cartodb_id":262,"type":"GP","name":"CHANDWANI DENT","address":"6918 KISSENA BLVD 125A ","city":"FLUSHING","state":"NY ","zipcode":11367,"phone":"347-494-4618","cartodb_georef_status":true,"typefull":"General Practitioner"}},{"type":"Feature","geometry":{"type":"Point","coordinates":[-74.11229,40.62934]},"properties":{"cartodb_id":56,"type":"GP","name":"NICHOLAS MATTIA","address":"694 FOREST AVENUE","city":"STATEN ISL","state":"NY ","zipcode":10310,"phone":"718-442-8440","cartodb_georef_status":true,"typefull":"General Practitioner"}},{"type":"Feature","geometry":{"type":"Point","coordinates":[-73.84519,40.72319]},"properties":{"cartodb_id":292,"type":"GP","name":"H GRIESNER","address":"69-60 108 ST SUITE 109 ","city":"FOREST HILLS","state":"NY ","zipcode":11375,"phone":"718-263-2694","cartodb_georef_status":true,"typefull":"General Practitioner"}},{"type":"Feature","geometry":{"type":"Point","coordinates":[-74.00956,40.7095]},"properties":{"cartodb_id":567,"type":"PE","name":"D W SPRUNG","address":"6 MAIDEN LANE 8TH FL","city":"NEW YORK","state":"NY ","zipcode":10038,"phone":"212-619-7931","cartodb_georef_status":true,"typefull":"Periodontist"}},{"type":"Feature","geometry":{"type":"Point","coordinates":[-73.98502,40.61065]},"properties":{"cartodb_id":481,"type":"OR","name":"UNLIMITED SMILE","address":"7000 BAY PARKWAY L-AB  ","city":"BROOKLYN","state":"NY ","zipcode":11204,"phone":"718-256-0022","cartodb_georef_status":true,"typefull":"Orthodontist"}},{"type":"Feature","geometry":{"type":"Point","coordinates":[-73.98502,40.61065]},"properties":{"cartodb_id":154,"type":"GP","name":"LEVIN DENTAL","address":"7000 BAY PKWY STE C","city":"BROOKLYN","state":"NY ","zipcode":11204,"phone":"718-837-1797","cartodb_georef_status":true,"typefull":"General Practitioner"}},{"type":"Feature","geometry":{"type":"Point","coordinates":[-73.84654,40.72108]},"properties":{"cartodb_id":551,"type":"OS","name":"SLAVA SHAPIRO","address":"70-09 AUSTIN ST.# 201  ","city":"FOREST HILLS","state":"NY ","zipcode":11375,"phone":"718-261-2790","cartodb_georef_status":true,"typefull":"Oral Surgeon"}},{"type":"Feature","geometry":{"type":"Point","coordinates":[-73.96852,40.79199]},"properties":{"cartodb_id":24,"type":"GP","name":"MEENA SHAH PC","address":"700 COLUMBUS AVE","city":"NEW YORK","state":"NY ","zipcode":10025,"phone":"212-865-0177","cartodb_georef_status":true,"typefull":"General Practitioner"}},{"type":"Feature","geometry":{"type":"Point","coordinates":[-73.89527,40.702314]},"properties":{"cartodb_id":302,"type":"GP","name":"SANTA LOCASCIO","address":"70-16 FRESH POND ROAD  ","city":"RIDGEWOOD","state":"NY ","zipcode":11385,"phone":"718-628-6588","cartodb_georef_status":true,"typefull":"General Practitioner"}},{"type":"Feature","geometry":{"type":"Point","coordinates":[-73.846326,40.72087]},"properties":{"cartodb_id":494,"type":"OR","name":"AUSTIN26 DEN GR","address":"70-17 AUSTIN STREET","city":"FOREST HILLS","state":"NY ","zipcode":11375,"phone":"718-261-4000","cartodb_georef_status":true,"typefull":"Orthodontist"}},{"type":"Feature","geometry":{"type":"Point","coordinates":[-73.84545,40.72016]},"properties":{"cartodb_id":291,"type":"GP","name":"ASTORIA DENTAL","address":"70-50  AUSTIN ST#114UL ","city":"FORSET HILLS","state":"NY ","zipcode":11375,"phone":"718-278-2141","cartodb_georef_status":true,"typefull":"General Practitioner"}},{"type":"Feature","geometry":{"type":"Point","coordinates":[-73.99065,40.73129]},"properties":{"cartodb_id":511,"type":"OS","name":"GREENWICH ORAL","address":"70 E 10TH STREET-#1G","city":"NEW YORK","state":"NY ","zipcode":10003,"phone":"212-477-6300","cartodb_georef_status":true,"typefull":"Oral Surgeon"}},{"type":"Feature","geometry":{"type":"Point","coordinates":[-74.01401,40.62764]},"properties":{"cartodb_id":222,"type":"GP","name":"CONRAD CHEUNG","address":"7110 FORT HAMILTON PKW ","city":"BROOKLYN","state":"NY ","zipcode":11228,"phone":"718-680-8818","cartodb_georef_status":true,"typefull":"General Practitioner"}},{"type":"Feature","geometry":{"type":"Point","coordinates":[-122.21159,37.81766]},"properties":{"cartodb_id":389,"type":"GP","name":"J KARPEL","address":"7193 W OAKLAND PK BLVD ","city":"LAUDERHILL","state":"FL ","zipcode":33313,"phone":"954-741-0102","cartodb_georef_status":true,"typefull":"General Practitioner"}},{"type":"Feature","geometry":{"type":"Point","coordinates":[-73.97246,41.10232]},"properties":{"cartodb_id":129,"type":"GP","name":"WEST NYACK DENT","address":"719 WEST NYACK ROAD","city":"WEST NYACK-#26  ","state":"NY ","zipcode":10994,"phone":"845-358-6888","cartodb_georef_status":true,"typefull":"General Practitioner"}},{"type":"Feature","geometry":{"type":"Point","coordinates":[-73.893813,40.750954]},"properties":{"cartodb_id":270,"type":"GP","name":"FAMOUS DTL CARE","address":"72-07 35TH AVE","city":"JACKSON HEIGHTS ","state":"NY ","zipcode":11372,"phone":"718-476-3666","cartodb_georef_status":true,"typefull":"General Practitioner"}},{"type":"Feature","geometry":{"type":"Point","coordinates":[-73.86649,40.85656]},"properties":{"cartodb_id":420,"type":"MS","name":"GORDON DDS PC","address":"724 PELHAM PKWY SOUTH  ","city":"BRONX","state":"NY ","zipcode":10462,"phone":"347-281-9444","cartodb_georef_status":true,"typefull":"Multiple Specialist"}},{"type":"Feature","geometry":{"type":"Point","coordinates":[-73.86649,40.85656]},"properties":{"cartodb_id":569,"type":"PE","name":"ADVANCED PERIO","address":"724 PELHAM PKWY SOUTH  ","city":"BRONX","state":"NY ","zipcode":10462,"phone":"347-281-9444","cartodb_georef_status":true,"typefull":"Periodontist"}},{"type":"Feature","geometry":{"type":"Point","coordinates":[-73.89862,40.84006]},"properties":{"cartodb_id":344,"type":"GP","name":"KANE DENT PLLC","address":"72 FULTON AVENUE","city":"HEMPSTEAD","state":"NY ","zipcode":11550,"phone":"516-483-2220","cartodb_georef_status":true,"typefull":"General Practitioner"}},{"type":"Feature","geometry":{"type":"Point","coordinates":[-73.993268,40.729317]},"properties":{"cartodb_id":537,"type":"OS","name":"R I GRANNUM","address":"730 BROADWAY","city":"BROOKLYN","state":"NY ","zipcode":11206,"phone":"718-963-1919","cartodb_georef_status":true,"typefull":"Oral Surgeon"}},{"type":"Feature","geometry":{"type":"Point","coordinates":[-73.88311,40.66608]},"properties":{"cartodb_id":482,"type":"OR","name":"HOWARD KAUFM PC","address":"738 NEW LOTS AVE","city":"BROOKLYN","state":"NY ","zipcode":11207,"phone":"718-257-1430","cartodb_georef_status":true,"typefull":"Orthodontist"}},{"type":"Feature","geometry":{"type":"Point","coordinates":[-74.19077,40.54773]},"properties":{"cartodb_id":561,"type":"PD","name":"GLENN MARIE PC","address":"739 WOODROW ROAD","city":"STATEN ISLAND","state":"NY ","zipcode":10312,"phone":"718-317-8524","cartodb_georef_status":true,"typefull":"Pedodontist"}},{"type":"Feature","geometry":{"type":"Point","coordinates":[-70.54572,44.54547]},"properties":{"cartodb_id":361,"type":"GP","name":"G GOLDFARB","address":"73 RUMFORD ROAD","city":"KINGS PARK","state":"NY ","zipcode":11754,"phone":"631-265-5444","cartodb_georef_status":true,"typefull":"General Practitioner"}},{"type":"Feature","geometry":{"type":"Point","coordinates":[-122.93436,43.8913]},"properties":{"cartodb_id":385,"type":"GP","name":"DENTAL EXCELLEN","address":"7426 WILES ROAD","city":"CORAL SPRINGS","state":"FL ","zipcode":33067,"phone":"954-255-3500","cartodb_georef_status":true,"typefull":"General Practitioner"}},{"type":"Feature","geometry":{"type":"Point","coordinates":[-73.94295,40.70071]},"properties":{"cartodb_id":158,"type":"GP","name":"CAIRO DENTAL PC","address":"745 FLUSHING AVE","city":"BROOKLYN","state":"NY ","zipcode":11206,"phone":"718-387-8992","cartodb_georef_status":true,"typefull":"General Practitioner"}},{"type":"Feature","geometry":{"type":"Point","coordinates":[-73.81035,40.72629]},"properties":{"cartodb_id":491,"type":"OR","name":"MY SMILES ORTHO","address":"75-05 PARSONS BLVD","city":"FLUSHING","state":"NY ","zipcode":11366,"phone":"718-380-1230","cartodb_georef_status":true,"typefull":"Orthodontist"}},{"type":"Feature","geometry":{"type":"Point","coordinates":[-74.02538,40.63058]},"properties":{"cartodb_id":164,"type":"GP","name":"DENTALARTCAREPC","address":"7510 4TH AVE SUITE 1","city":"BROOKLYN","state":"NY ","zipcode":11209,"phone":"718-232-9559","cartodb_georef_status":true,"typefull":"General Practitioner"}},{"type":"Feature","geometry":{"type":"Point","coordinates":[-74.02349,40.62782]},"properties":{"cartodb_id":425,"type":"MS","name":"M SHEHADA","address":"7708 5TH AVE","city":"BROOKLYN","state":"NY ","zipcode":11209,"phone":"718-836-2111","cartodb_georef_status":true,"typefull":"Multiple Specialist"}},{"type":"Feature","geometry":{"type":"Point","coordinates":[-73.86468,40.86533]},"properties":{"cartodb_id":96,"type":"GP","name":"DENTAL UNIVERSE","address":"770 ALLERTON AVE","city":"BRONX","state":"NY ","zipcode":10467,"phone":"718-325-5555","cartodb_georef_status":true,"typefull":"General Practitioner"}},{"type":"Feature","geometry":{"type":"Point","coordinates":[-73.91533,40.82226]},"properties":{"cartodb_id":62,"type":"GP","name":"FIRST CLASS DEN","address":"779 MELROSE AVE","city":"BRONX","state":"NY ","zipcode":10451,"phone":"718-676-0822","cartodb_georef_status":true,"typefull":"General Practitioner"}},{"type":"Feature","geometry":{"type":"Point","coordinates":[-73.914,40.63439]},"properties":{"cartodb_id":244,"type":"GP","name":"FLATLANDS DENT","address":"7806 FLATLANDS AVE","city":"BROOKLYN","state":"NY ","zipcode":11236,"phone":"718-975-4998","cartodb_georef_status":true,"typefull":"General Practitioner"}},{"type":"Feature","geometry":{"type":"Point","coordinates":[-74.02617,40.62766]},"properties":{"cartodb_id":540,"type":"OS","name":"ADV IMPLANT ORA","address":"7901 4TH AVE","city":"BROOKLYN","state":"NY ","zipcode":11209,"phone":"718-745-0400","cartodb_georef_status":true,"typefull":"Oral Surgeon"}},{"type":"Feature","geometry":{"type":"Point","coordinates":[-73.94037,40.70084]},"properties":{"cartodb_id":157,"type":"GP","name":"ANDRICKSON DENT","address":"792 FLUSHING AVENUE","city":"BROOKLYN","state":"NY ","zipcode":11206,"phone":"718-443-5500","cartodb_georef_status":true,"typefull":"General Practitioner"}},{"type":"Feature","geometry":{"type":"Point","coordinates":[-73.98152,40.5962]},"properties":{"cartodb_id":485,"type":"OR","name":"ORTHO CLUB","address":"79 AVENUE U","city":"BROOKLYN","state":"NY ","zipcode":11223,"phone":"718-373-6707","cartodb_georef_status":true,"typefull":"Orthodontist"}},{"type":"Feature","geometry":{"type":"Point","coordinates":[-73.99539,40.60257]},"properties":{"cartodb_id":181,"type":"GP","name":"BROOKLYN DENTAL","address":"7 BAY 28TH STREET-1-2N ","city":"BROOKLYN","state":"NY ","zipcode":11214,"phone":"718-333-9900","cartodb_georef_status":true,"typefull":"General Practitioner"}},{"type":"Feature","geometry":{"type":"Point","coordinates":[-74.01009,40.7106]},"properties":{"cartodb_id":8,"type":"GP","name":"A HANNA","address":"7 DEY STREET STE#700","city":"NEW YORK","state":"NY ","zipcode":10007,"phone":"212-619-5121","cartodb_georef_status":true,"typefull":"General Practitioner"}},{"type":"Feature","geometry":{"type":"Point","coordinates":[-80.19436,26.12497]},"properties":{"cartodb_id":440,"type":"MS","name":"BROWARD MALL DE","address":"8000 W BROWARD BLVD","city":"PLANTATION","state":"FL ","zipcode":33388,"phone":"954-476-0802","cartodb_georef_status":true,"typefull":"Multiple Specialist"}},{"type":"Feature","geometry":{"type":"Point","coordinates":[-74.02415,40.62537]},"properties":{"cartodb_id":165,"type":"GP","name":"EXECUTIVE DENT","address":"8011 FIFTH AVE","city":"BROOKLYN","state":"NY ","zipcode":11209,"phone":"718-748-6847","cartodb_georef_status":true,"typefull":"General Practitioner"}},{"type":"Feature","geometry":{"type":"Point","coordinates":[-73.879382,40.661422]},"properties":{"cartodb_id":161,"type":"GP","name":"J H STEIN","address":"805 STANLEY AVE","city":"BROOKLYN","state":"NY ","zipcode":11207,"phone":"718-272-9292","cartodb_georef_status":true,"typefull":"General Practitioner"}},{"type":"Feature","geometry":{"type":"Point","coordinates":[-73.88353,40.74182]},"properties":{"cartodb_id":588,"type":"PE","name":"DR.VENKATESH-PC","address":"81-11 45TH AVE STE 1J  ","city":"ELMHURST","state":"NY ","zipcode":11373,"phone":"718-424-5757","cartodb_georef_status":true,"typefull":"Periodontist"}},{"type":"Feature","geometry":{"type":"Point","coordinates":[-73.88353,40.74182]},"properties":{"cartodb_id":279,"type":"GP","name":"B SURTI","address":"81-11 45TH AVE SUT 1J  ","city":"ELMHURST","state":"NY ","zipcode":11373,"phone":"347-350-3889","cartodb_georef_status":true,"typefull":"General Practitioner"}},{"type":"Feature","geometry":{"type":"Point","coordinates":[-73.88382,40.7479]},"properties":{"cartodb_id":269,"type":"GP","name":"DAZZLING SMILE","address":"82-01 ROOSEVELT AVE.#2 ","city":"JACKSON HEIGHTS ","state":"NY ","zipcode":11372,"phone":"718-476-5555","cartodb_georef_status":true,"typefull":"General Practitioner"}},{"type":"Feature","geometry":{"type":"Point","coordinates":[-73.88361,40.74956]},"properties":{"cartodb_id":547,"type":"OS","name":"MANHATTAN ORAL","address":"82-12 37TH AVE","city":"JACKSON HEIGHTS ","state":"NY ","zipcode":11372,"phone":"347-738-4775","cartodb_georef_status":true,"typefull":"Oral Surgeon"}},{"type":"Feature","geometry":{"type":"Point","coordinates":[-73.83208,40.7068]},"properties":{"cartodb_id":305,"type":"GP","name":"P C KEW GARDENS-D ","address":"82-34 LEFFERTS BLVD","city":"KEW GARDENS","state":"NY ","zipcode":11415,"phone":"718-441-4442","cartodb_georef_status":true,"typefull":"General Practitioner"}},{"type":"Feature","geometry":{"type":"Point","coordinates":[-73.902356,40.81943]},"properties":{"cartodb_id":77,"type":"GP","name":"R VINJAMURI","address":"823 WESTCHESTER AVE","city":"BRONX","state":"NY ","zipcode":10455,"phone":"718-893-0080","cartodb_georef_status":true,"typefull":"General Practitioner"}},{"type":"Feature","geometry":{"type":"Point","coordinates":[-73.88112,40.74427]},"properties":{"cartodb_id":276,"type":"GP","name":"M ISRANI","address":"83-40 BRITTON AVE-#P1  ","city":"ELMHURST","state":"NY ","zipcode":11373,"phone":"718-426-7511","cartodb_georef_status":true,"typefull":"General Practitioner"}},{"type":"Feature","geometry":{"type":"Point","coordinates":[-74.8649,39.42074]},"properties":{"cartodb_id":563,"type":"PE","name":"R F GERHARD","address":"834 AVENUE C","city":"BAYONNE","state":"NJ ","zipcode":7002,"phone":"201-858-4928","cartodb_georef_status":true,"typefull":"Periodontist"}},{"type":"Feature","geometry":{"type":"Point","coordinates":[-73.979933,40.749926]},"properties":{"cartodb_id":153,"type":"GP","name":"DENTFORADULTS&C","address":"83 EAST 38TH STREET","city":"BROOKLYN","state":"NY ","zipcode":11203,"phone":"718-363-8026","cartodb_georef_status":true,"typefull":"General Practitioner"}},{"type":"Feature","geometry":{"type":"Point","coordinates":[-73.882147,40.749828]},"properties":{"cartodb_id":273,"type":"GP","name":"ROSETTE IMANI","address":"84-18 37TH AVE","city":"JACKSON HEIGHTS ","state":"NY ","zipcode":11372,"phone":"718-426-3000","cartodb_georef_status":true,"typefull":"General Practitioner"}},{"type":"Feature","geometry":{"type":"Point","coordinates":[-73.92527,40.82762]},"properties":{"cartodb_id":63,"type":"GP","name":"SHERIDAN SMILE","address":"841 CONCOURSE VILLAGEW ","city":"BRONX","state":"NY ","zipcode":10451,"phone":"347-590-2851","cartodb_georef_status":true,"typefull":"General Practitioner"}},{"type":"Feature","geometry":{"type":"Point","coordinates":[-73.99346,40.60253]},"properties":{"cartodb_id":580,"type":"PE","name":"C PATIL","address":"8502 BAY PARKWAY","city":"BROOKLYN","state":"NY ","zipcode":11228,"phone":"718-373-5000","cartodb_georef_status":true,"typefull":"Periodontist"}},{"type":"Feature","geometry":{"type":"Point","coordinates":[-73.99346,40.60253]},"properties":{"cartodb_id":578,"type":"PE","name":"L R UGLIALORO","address":"8502 BAY PARKWAY","city":"BROOKLYN","state":"NY ","zipcode":11214,"phone":"718-373-5000","cartodb_georef_status":true,"typefull":"Periodontist"}},{"type":"Feature","geometry":{"type":"Point","coordinates":[-73.99346,40.60253]},"properties":{"cartodb_id":576,"type":"PE","name":"G BEER","address":"8502 BAY PARKWAY","city":"BROOKLYN","state":"NY ","zipcode":11214,"phone":"718-373-5000","cartodb_georef_status":true,"typefull":"Periodontist"}},{"type":"Feature","geometry":{"type":"Point","coordinates":[-73.99346,40.60253]},"properties":{"cartodb_id":426,"type":"MS","name":"I E GRONOWITZ","address":"8502 BAY PARKWAY","city":"BROOKLYN","state":"NY ","zipcode":11214,"phone":"718-373-5000","cartodb_georef_status":true,"typefull":"Multiple Specialist"}},{"type":"Feature","geometry":{"type":"Point","coordinates":[-73.99346,40.60253]},"properties":{"cartodb_id":577,"type":"PE","name":"M KNAKEL","address":"8502 BAY PKWY","city":"BROOKLYN","state":"NY ","zipcode":11214,"phone":"718-373-5000","cartodb_georef_status":true,"typefull":"Periodontist"}},{"type":"Feature","geometry":{"type":"Point","coordinates":[-73.99098,40.73459]},"properties":{"cartodb_id":5,"type":"GP","name":"R BOXER","address":"853 BROADWAY","city":"NEW YORK","state":"NY ","zipcode":10003,"phone":"212-677-6568","cartodb_georef_status":true,"typefull":"General Practitioner"}},{"type":"Feature","geometry":{"type":"Point","coordinates":[-73.99098,40.73459]},"properties":{"cartodb_id":6,"type":"GP","name":"FAMILY DENT PC","address":"853 BROADWAY STE 911","city":"NEW YORK","state":"NY ","zipcode":10003,"phone":"212-677-6568","cartodb_georef_status":true,"typefull":"General Practitioner"}},{"type":"Feature","geometry":{"type":"Point","coordinates":[-73.99098,40.73459]},"properties":{"cartodb_id":4,"type":"GP","name":"AKNOUK SAMEH","address":"853 BROADWAY STE 911","city":"NEW YORK","state":"NY ","zipcode":10003,"phone":"212-677-6568","cartodb_georef_status":true,"typefull":"General Practitioner"}},{"type":"Feature","geometry":{"type":"Point","coordinates":[-73.85359,40.68234]},"properties":{"cartodb_id":306,"type":"GP","name":"B.N.M. DENTAL","address":"8601 101ST AVE","city":"OZONE PARK","state":"NY ","zipcode":11416,"phone":"718-323-2032","cartodb_georef_status":true,"typefull":"General Practitioner"}},{"type":"Feature","geometry":{"type":"Point","coordinates":[-73.76272,40.76899]},"properties":{"cartodb_id":431,"type":"MS","name":"QUEENS PROF DEN","address":"86-18A 37TH AVENUE","city":"JACKSON HEIGHTS ","state":"NY ","zipcode":11372,"phone":"718-898-8080","cartodb_georef_status":true,"typefull":"Multiple Specialist"}},{"type":"Feature","geometry":{"type":"Point","coordinates":[-73.87746,40.73773]},"properties":{"cartodb_id":280,"type":"GP","name":"TODAY'S DTLNYPC","address":"86-30 BROADWAY STE 2B  ","city":"ELMHURST","state":"NY ","zipcode":11373,"phone":"718-760-5500","cartodb_georef_status":true,"typefull":"General Practitioner"}},{"type":"Feature","geometry":{"type":"Point","coordinates":[-74.01131,40.6099]},"properties":{"cartodb_id":223,"type":"GP","name":"FIRSTCARE DENTA","address":"8684 15TH AVE","city":"BROOKLYN","state":"NY ","zipcode":11228,"phone":"718-256-5858","cartodb_georef_status":true,"typefull":"General Practitioner"}},{"type":"Feature","geometry":{"type":"Point","coordinates":[-73.85733,40.69283]},"properties":{"cartodb_id":313,"type":"GP","name":"JAMAICA 18 DENT","address":"87-01 JAMAICA AVE.","city":"WOODHAVEN","state":"NY ","zipcode":11421,"phone":"718-850-3000","cartodb_georef_status":true,"typefull":"General Practitioner"}},{"type":"Feature","geometry":{"type":"Point","coordinates":[-73.87637,40.73722]},"properties":{"cartodb_id":589,"type":"PE","name":"V S LIN","address":"87-08 JUSTICE AVE #2M  ","city":"ELMHURST","state":"NY ","zipcode":11373,"phone":"718-898-3702","cartodb_georef_status":true,"typefull":"Periodontist"}},{"type":"Feature","geometry":{"type":"Point","coordinates":[-73.851878,40.692425]},"properties":{"cartodb_id":591,"type":"PE","name":"ECOBEDO CAROLIN","address":"87-08 WOODHAVEN BLVD","city":"2ND FL WOODHAVE ","state":"NY ","zipcode":11421,"phone":"718-805-7777","cartodb_georef_status":true,"typefull":"Periodontist"}},{"type":"Feature","geometry":{"type":"Point","coordinates":[-73.87922,40.75051]},"properties":{"cartodb_id":275,"type":"GP","name":"VIVA DENTAL","address":"87-15 37TH AVE OFFIC A ","city":"JACKSON HEIGHTS ","state":"NY ","zipcode":11372,"phone":"718-651-8488","cartodb_georef_status":true,"typefull":"General Practitioner"}},{"type":"Feature","geometry":{"type":"Point","coordinates":[-73.79064,40.7113]},"properties":{"cartodb_id":326,"type":"GP","name":"Y CONTE","address":"87-61 171ST STREET","city":"JAMAICA","state":"NY ","zipcode":11432,"phone":"718-739-3535","cartodb_georef_status":true,"typefull":"General Practitioner"}},{"type":"Feature","geometry":{"type":"Point","coordinates":[-73.80911,40.70531]},"properties":{"cartodb_id":335,"type":"GP","name":"D E FULTON PARK P ","address":"87-73 SUTPHIN BLVD","city":"JAMAICA","state":"NY ","zipcode":11435,"phone":"718-291-1771","cartodb_georef_status":true,"typefull":"General Practitioner"}},{"type":"Feature","geometry":{"type":"Point","coordinates":[-73.75764,40.72208]},"properties":{"cartodb_id":321,"type":"GP","name":"R HAMILTON","address":"88-01 208TH ST","city":"QUEENS VILLAGE  ","state":"NY ","zipcode":11427,"phone":"718-464-4949","cartodb_georef_status":true,"typefull":"General Practitioner"}},{"type":"Feature","geometry":{"type":"Point","coordinates":[-73.98834,40.7742]},"properties":{"cartodb_id":581,"type":"PE","name":"NEW YORK PROG","address":"88 WEST END AVE","city":"BROOKLYN","state":"NY ","zipcode":11235,"phone":"718-769-4978","cartodb_georef_status":true,"typefull":"Periodontist"}},{"type":"Feature","geometry":{"type":"Point","coordinates":[-73.79642,40.70713]},"properties":{"cartodb_id":327,"type":"GP","name":"EMMET DENTAL PC","address":"89-02 165TH ST MW29","city":"JAMAICA","state":"NY ","zipcode":11432,"phone":"718-657-4838","cartodb_georef_status":true,"typefull":"General Practitioner"}},{"type":"Feature","geometry":{"type":"Point","coordinates":[-73.795367,40.707644]},"properties":{"cartodb_id":329,"type":"GP","name":"GREAT CARE DENT","address":"89-28 MERRICK BLVD","city":"JAMAICA","state":"NY ","zipcode":11432,"phone":"718-291-9456","cartodb_georef_status":true,"typefull":"General Practitioner"}},{"type":"Feature","geometry":{"type":"Point","coordinates":[-73.796188,40.705659]},"properties":{"cartodb_id":325,"type":"GP","name":"CITY DENT CARE","address":"89-50 164 STREET-STE2A ","city":"JAMAICA","state":"NY ","zipcode":11432,"phone":"212-457-0006","cartodb_georef_status":true,"typefull":"General Practitioner"}},{"type":"Feature","geometry":{"type":"Point","coordinates":[-73.796113,40.706136]},"properties":{"cartodb_id":324,"type":"GP","name":"ADVANCEDIMP/COS","address":"89-61 164TH STREET","city":"JAMAICA","state":"NY ","zipcode":11432,"phone":"718-739-0900","cartodb_georef_status":true,"typefull":"General Practitioner"}},{"type":"Feature","geometry":{"type":"Point","coordinates":[-73.97051,40.76636]},"properties":{"cartodb_id":46,"type":"GP","name":"63RD ST DENT PC","address":"8A EAST 63RD ST","city":"NEW YORK","state":"NY ","zipcode":10065,"phone":"212-355-2540","cartodb_georef_status":true,"typefull":"General Practitioner"}},{"type":"Feature","geometry":{"type":"Point","coordinates":[-73.87094,40.73462]},"properties":{"cartodb_id":278,"type":"GP","name":"QUEENS CNT DENT","address":"90-15 QUEENS BLVD","city":"ELMHURST","state":"NY ","zipcode":11373,"phone":"718-760-1616","cartodb_georef_status":true,"typefull":"General Practitioner"}},{"type":"Feature","geometry":{"type":"Point","coordinates":[-73.119628,40.926613]},"properties":{"cartodb_id":560,"type":"OS","name":"NORTH SHORE PC","address":"901 OLD COUNTRY ROAD","city":"PLAINVIEW","state":"NY ","zipcode":11803,"phone":"516-681-5330","cartodb_georef_status":true,"typefull":"Oral Surgeon"}},{"type":"Feature","geometry":{"type":"Point","coordinates":[-73.799628,40.704805]},"properties":{"cartodb_id":330,"type":"GP","name":"P C JAMAICA DENTA ","address":"90-33 160 STREET","city":"JAMAICA","state":"NY ","zipcode":11432,"phone":"718-657-0200","cartodb_georef_status":true,"typefull":"General Practitioner"}},{"type":"Feature","geometry":{"type":"Point","coordinates":[-73.75662,40.71674]},"properties":{"cartodb_id":322,"type":"GP","name":"J BORDE","address":"90-50 FRANCIS LEWIS BL ","city":"QUEENS VILLAGE  ","state":"NY ","zipcode":11428,"phone":"718-740-4700","cartodb_georef_status":true,"typefull":"General Practitioner"}},{"type":"Feature","geometry":{"type":"Point","coordinates":[-73.807759,40.701537]},"properties":{"cartodb_id":336,"type":"GP","name":"LEIFER GERALD","address":"90-53 SUTPHIN BLVD 2FL ","city":"JAMAICA","state":"NY ","zipcode":11435,"phone":"718-739-6050","cartodb_georef_status":true,"typefull":"General Practitioner"}},{"type":"Feature","geometry":{"type":"Point","coordinates":[-74.11295,40.577139]},"properties":{"cartodb_id":471,"type":"OR","name":"R E GRAHAM","address":"90 BRYANT AVE #1C","city":"WHITE PLAINS","state":"NY ","zipcode":10605,"phone":"914-946-9098","cartodb_georef_status":true,"typefull":"Orthodontist"}},{"type":"Feature","geometry":{"type":"Point","coordinates":[-74.11295,40.577139]},"properties":{"cartodb_id":473,"type":"OR","name":"WHITE PLAINS OR","address":"90 BRYANT AVE. APT1CE  ","city":"WHITE PLAINS","state":"NY ","zipcode":10605,"phone":"914-946-9098","cartodb_georef_status":true,"typefull":"Orthodontist"}},{"type":"Feature","geometry":{"type":"Point","coordinates":[-73.92155,40.82779]},"properties":{"cartodb_id":417,"type":"MS","name":"B & B DENTAL PC","address":"910 GRAND CONCOURSE-1A ","city":"BRONX","state":"NY ","zipcode":10451,"phone":"718-538-2410","cartodb_georef_status":true,"typefull":"Multiple Specialist"}},{"type":"Feature","geometry":{"type":"Point","coordinates":[-73.94771,40.67313]},"properties":{"cartodb_id":187,"type":"GP","name":"C JOHNSON","address":"910 PARK PLACE-STE B","city":"BROOKLYN","state":"NY ","zipcode":11216,"phone":"718-773-2273","cartodb_georef_status":true,"typefull":"General Practitioner"}},{"type":"Feature","geometry":{"type":"Point","coordinates":[-73.86151,40.85664]},"properties":{"cartodb_id":91,"type":"GP","name":"P L EISENBERG","address":"910 PELHAM PKWY SOUTH  ","city":"BRONX","state":"NY ","zipcode":10462,"phone":"718-597-1825","cartodb_georef_status":true,"typefull":"General Practitioner"}},{"type":"Feature","geometry":{"type":"Point","coordinates":[-73.862,40.82425]},"properties":{"cartodb_id":108,"type":"GP","name":"BRUCKNER DENTAL","address":"910 THIERIOT AVE #1C","city":"BRONX","state":"NY ","zipcode":10473,"phone":"718-589-3131","cartodb_georef_status":true,"typefull":"General Practitioner"}},{"type":"Feature","geometry":{"type":"Point","coordinates":[-73.989977,40.732183]},"properties":{"cartodb_id":352,"type":"GP","name":"R SNYDER","address":"97 SOUTH PARK AVE","city":"ROCKVILLE CTR","state":"NY ","zipcode":11570,"phone":"516-763-4470","cartodb_georef_status":true,"typefull":"General Practitioner"}},{"type":"Feature","geometry":{"type":"Point","coordinates":[-73.98773,40.63904]},"properties":{"cartodb_id":483,"type":"OR","name":"CHANINAZWEIHORN","address":"4119 13TH AVENUE","city":"BROOKLYN","state":"NY ","zipcode":11219,"phone":"718-435-3393","cartodb_georef_status":true,"typefull":"Orthodontist"}},{"type":"Feature","geometry":{"type":"Point","coordinates":[-73.71748,40.72627]},"properties":{"cartodb_id":436,"type":"MS","name":"KANE D/HUNTINGT","address":"135 W. JERICHO TPKE","city":"HUNTINGTON ST.  ","state":"NY ","zipcode":11746,"phone":"631-424-5900","cartodb_georef_status":true,"typefull":"Multiple Specialist"}},{"type":"Feature","geometry":{"type":"Point","coordinates":[-73.83108,40.76267]},"properties":{"cartodb_id":251,"type":"GP","name":"FLUSHING DENTAL","address":"136-14 A NORTHERN BLVD ","city":"FLUSHING","state":"NY ","zipcode":11354,"phone":"718-445-7030","cartodb_georef_status":true,"typefull":"General Practitioner"}},{"type":"Feature","geometry":{"type":"Point","coordinates":[-73.82732,40.76051]},"properties":{"cartodb_id":252,"type":"GP","name":"YU YE ZHOU DDS","address":"136-81 ROOSEVELT AVE 2 ","city":"FLUSHING","state":"NY ","zipcode":11354,"phone":"718-353-4777","cartodb_georef_status":true,"typefull":"General Practitioner"}},{"type":"Feature","geometry":{"type":"Point","coordinates":[-73.77468,40.67156]},"properties":{"cartodb_id":334,"type":"GP","name":"ROCHDALE DENTAL","address":"137-04 GUYR.BREWER BLV ","city":"JAMAICA","state":"NY ","zipcode":11434,"phone":"718-723-5630","cartodb_georef_status":true,"typefull":"General Practitioner"}},{"type":"Feature","geometry":{"type":"Point","coordinates":[-73.93236,40.67039]},"properties":{"cartodb_id":179,"type":"GP","name":"D D MISHRA","address":"1388 ST JOHN'S PLACE","city":"BROOKLYN","state":"NY ","zipcode":11213,"phone":"718-467-6336","cartodb_georef_status":true,"typefull":"General Practitioner"}},{"type":"Feature","geometry":{"type":"Point","coordinates":[-73.881775,40.647551]},"properties":{"cartodb_id":582,"type":"PE","name":"M SEDAGATPOUR","address":"1390 PENNSYLAVANIA AVE ","city":"BROOKLYN","state":"NY ","zipcode":11239,"phone":"718-642-8600","cartodb_georef_status":true,"typefull":"Periodontist"}},{"type":"Feature","geometry":{"type":"Point","coordinates":[-73.881775,40.647551]},"properties":{"cartodb_id":428,"type":"MS","name":"STARRETT CTY DT","address":"1390 PENNSYLVANIA AV","city":"BROOKLYN","state":"NY ","zipcode":11239,"phone":"718-642-8600","cartodb_georef_status":true,"typefull":"Multiple Specialist"}},{"type":"Feature","geometry":{"type":"Point","coordinates":[-73.85332,40.69296]},"properties":{"cartodb_id":312,"type":"GP","name":"DENTAL UNIVERSE","address":"91-10 JAMAICA AVE","city":"WOODHAVEN","state":"NY ","zipcode":11421,"phone":"718-805-4444","cartodb_georef_status":true,"typefull":"General Practitioner"}},{"type":"Feature","geometry":{"type":"Point","coordinates":[-73.904666,40.69905]},"properties":{"cartodb_id":299,"type":"GP","name":"DENTIST R US PC","address":"918 CYPRESS AVENUE","city":"RIDGEWOOD","state":"NY ","zipcode":11385,"phone":"718-366-7510","cartodb_georef_status":true,"typefull":"General Practitioner"}},{"type":"Feature","geometry":{"type":"Point","coordinates":[-73.98542,40.71863]},"properties":{"cartodb_id":345,"type":"GP","name":"P C NASSAU DENTAL ","address":"91 CLINTON STREET","city":"HEMPSTEAD","state":"NY ","zipcode":11550,"phone":"516-538-8980","cartodb_georef_status":true,"typefull":"General Practitioner"}},{"type":"Feature","geometry":{"type":"Point","coordinates":[-73.96311,40.60681]},"properties":{"cartodb_id":203,"type":"GP","name":"A ABDIYEV","address":"920 KINGS HWY 2ND.FL","city":"BROOKLYN","state":"NY ","zipcode":11223,"phone":"718-339-0001","cartodb_georef_status":true,"typefull":"General Practitioner"}},{"type":"Feature","geometry":{"type":"Point","coordinates":[-73.866556,40.731376]},"properties":{"cartodb_id":550,"type":"OS","name":"ADV IMPLANT ORA","address":"9308 QUEENS BLVD","city":"REGO PARK","state":"NY ","zipcode":11374,"phone":"718-275-0700","cartodb_georef_status":true,"typefull":"Oral Surgeon"}},{"type":"Feature","geometry":{"type":"Point","coordinates":[-73.94437,40.69583]},"properties":{"cartodb_id":160,"type":"GP","name":"SUN RACHEL","address":"934 MYRTLE AVE","city":"BROOKLYN","state":"NY ","zipcode":11206,"phone":"646-596-5134","cartodb_georef_status":true,"typefull":"General Practitioner"}},{"type":"Feature","geometry":{"type":"Point","coordinates":[-74.1633,40.84933]},"properties":{"cartodb_id":441,"type":"OR","name":"CLIFTON ORTHO","address":"935 ALLWOOD RD","city":"CLIFTON","state":"NJ ","zipcode":7012,"phone":"973-471-7200","cartodb_georef_status":true,"typefull":"Orthodontist"}},{"type":"Feature","geometry":{"type":"Point","coordinates":[-73.872866,40.750822]},"properties":{"cartodb_id":267,"type":"GP","name":"APPREHENSIVE DE","address":"94-18 37TH AVENUE","city":"REGO PARK","state":"NY ","zipcode":11372,"phone":"718-429-3642","cartodb_georef_status":true,"typefull":"General Practitioner"}},{"type":"Feature","geometry":{"type":"Point","coordinates":[-73.862984,40.728783]},"properties":{"cartodb_id":433,"type":"MS","name":"Y NEKTALOV","address":"94-24 63 DRIVE","city":"REGO PARK","state":"NY ","zipcode":11374,"phone":"718-275-4545","cartodb_georef_status":true,"typefull":"Multiple Specialist"}},{"type":"Feature","geometry":{"type":"Point","coordinates":[-73.866093,40.734897]},"properties":{"cartodb_id":432,"type":"MS","name":"ELIDA DENT CARE","address":"94-42 59TH AVE","city":"ELMHURST","state":"NY ","zipcode":11373,"phone":"718-699-1100","cartodb_georef_status":true,"typefull":"Multiple Specialist"}},{"type":"Feature","geometry":{"type":"Point","coordinates":[-73.95467,40.73171]},"properties":{"cartodb_id":202,"type":"GP","name":"MANH AVE FAM DE","address":"947 MANHATTAN AVE","city":"BROOKLYN","state":"NY ","zipcode":11222,"phone":"718-389-4266","cartodb_georef_status":true,"typefull":"General Practitioner"}},{"type":"Feature","geometry":{"type":"Point","coordinates":[-73.88732,40.65484]},"properties":{"cartodb_id":539,"type":"OS","name":"B B MALTZ","address":"955 PENNSYLVANIA AVE","city":"BROOKLYN","state":"NY ","zipcode":11207,"phone":"718-272-8300","cartodb_georef_status":true,"typefull":"Oral Surgeon"}},{"type":"Feature","geometry":{"type":"Point","coordinates":[-74.089986,40.571345]},"properties":{"cartodb_id":347,"type":"GP","name":"R MONHIAN-RAHMANI ","address":"960 HEMPSTEAD AVE","city":"WEST HEMPSTEAD  ","state":"NY ","zipcode":11552,"phone":"516-481-0787","cartodb_georef_status":true,"typefull":"General Practitioner"}},{"type":"Feature","geometry":{"type":"Point","coordinates":[-73.88543,40.83672]},"properties":{"cartodb_id":88,"type":"GP","name":"NEW HORIZON DEN","address":"961 EAST 174TH ST-B150 ","city":"BRONX","state":"NY ","zipcode":10460,"phone":"718-861-8060","cartodb_georef_status":true,"typefull":"General Practitioner"}},{"type":"Feature","geometry":null,"properties":{"cartodb_id":437,"type":"MS","name":"WESTLAND MALL","address":"1665 W 49TH STREET","city":"HIALEAH","state":"FL ","zipcode":33012,"phone":"305-829-7779","cartodb_georef_status":false,"typefull":"Multiple Specialist"}},{"type":"Feature","geometry":{"type":"Point","coordinates":[-73.924,40.76161]},"properties":{"cartodb_id":144,"type":"GP","name":"M MOLFETAS","address":"32-11 BROADWAY","city":"ASTORIA","state":"NY ","zipcode":11106,"phone":"718-777-2802","cartodb_georef_status":true,"typefull":"General Practitioner"}},{"type":"Feature","geometry":{"type":"Point","coordinates":[-73.9969,40.69079]},"properties":{"cartodb_id":350,"type":"GP","name":"ATLANTIC AVEDEN","address":"96 ATLANTIC AVE","city":"LYNBROOK","state":"NY ","zipcode":11563,"phone":"516-792-6952","cartodb_georef_status":true,"typefull":"General Practitioner"}},{"type":"Feature","geometry":{"type":"Point","coordinates":[-73.84829,40.69488]},"properties":{"cartodb_id":314,"type":"GP","name":"92 JAMAICA AV D","address":"97-09 JAMAICA AVE","city":"WOODHAVEN","state":"NY ","zipcode":11421,"phone":"718-805-3600","cartodb_georef_status":true,"typefull":"General Practitioner"}},{"type":"Feature","geometry":{"type":"Point","coordinates":[-73.85992,40.73602]},"properties":{"cartodb_id":265,"type":"GP","name":"R SNYDER","address":"9825 HORACE HARDING-2E ","city":"CORONA","state":"NY ","zipcode":11368,"phone":"718-592-2330","cartodb_georef_status":true,"typefull":"General Practitioner"}},{"type":"Feature","geometry":{"type":"Point","coordinates":[-74.098,40.58965]},"properties":{"cartodb_id":246,"type":"GP","name":"G S RAFAL","address":"99-15 SEAVIEW AVE","city":"BROOKLYN","state":"NY ","zipcode":11236,"phone":"718-763-7799","cartodb_georef_status":true,"typefull":"General Practitioner"}},{"type":"Feature","geometry":{"type":"Point","coordinates":[-73.85583,40.73393]},"properties":{"cartodb_id":283,"type":"GP","name":"GY DENTAL","address":"99-46 62ND DRIVE","city":"REGO PARK","state":"NY ","zipcode":11374,"phone":"718-421-6300","cartodb_georef_status":true,"typefull":"General Practitioner"}},{"type":"Feature","geometry":{"type":"Point","coordinates":[-74.0426,40.40642]},"properties":{"cartodb_id":451,"type":"OR","name":"M CHOI","address":"9 LEONARDVILLE ROAD","city":"MIDDLETON","state":"NJ ","zipcode":7748,"phone":"732-671-5700","cartodb_georef_status":true,"typefull":"Orthodontist"}},{"type":"Feature","geometry":{"type":"Point","coordinates":[-73.97766,40.68526]},"properties":{"cartodb_id":544,"type":"OS","name":"NYC ORAL SURGY","address":"ONE HANSON PLACE #707  ","city":"BROOKLYN","state":"NY ","zipcode":11243,"phone":"718-783-6000","cartodb_georef_status":true,"typefull":"Oral Surgeon"}}]}